<?xml version="1.0" encoding="UTF-8"?>
<kml xmlns="http://www.opengis.net/kml/2.2">
<Document>
<Placemark>
<name>Subway  Bugis+</name>
<description>
<p><font color="red"><i></i>
<b>PostalCode - 188067</b>
</font></p>
<p><font color="Blue"><i></i>
<b>Description - Healthier eatery at restaurant</b>
</font></p>
</description>
<Point>
<coordinates>103.854239855197,1.29956232728433</coordinates>
</Point>
</Placemark>
<Placemark>
<name>McDonalds  Bugis +</name>
<description>
<p><font color="red"><i></i>
<b>PostalCode - 188067</b>
</font></p>
<p><font color="Blue"><i></i>
<b>Description - Healthier eatery at restaurant</b>
</font></p>
</description>
<Point>
<coordinates>103.854239855197,1.29956232728433</coordinates>
</Point>
</Placemark>
<Placemark>
<name>Subway  Star Vista</name>
<description>
<p><font color="red"><i></i>
<b>PostalCode - 138617</b>
</font></p>
<p><font color="Blue"><i></i>
<b>Description - Healthier eatery at restaurant</b>
</font></p>
</description>
<Point>
<coordinates>103.788214210577,1.306849160917</coordinates>
</Point>
</Placemark>
<Placemark>
<name>McDonalds  West Coast Park</name>
<description>
<p><font color="red"><i></i>
<b>PostalCode - 126844</b>
</font></p>
<p><font color="Blue"><i></i>
<b>Description - Healthier eatery at restaurant</b>
</font></p>
</description>
<Point>
<coordinates>103.763301309697,1.29754958260926</coordinates>
</Point>
</Placemark>
<Placemark>
<name>Quiznos  West Coast Plaza</name>
<description>
<p><font color="red"><i></i>
<b>PostalCode - 127371</b>
</font></p>
<p><font color="Blue"><i></i>
<b>Description - Healthier eatery at restaurant</b>
</font></p>
</description>
<Point>
<coordinates>103.765858068884,1.30362490332157</coordinates>
</Point>
</Placemark>
<Placemark>
<name>PastaMania  West Coast Plaza</name>
<description>
<p><font color="red"><i></i>
<b>PostalCode - 127371</b>
</font></p>
<p><font color="Blue"><i></i>
<b>Description - Healthier eatery at restaurant</b>
</font></p>
</description>
<Point>
<coordinates>103.765858068884,1.30362490332157</coordinates>
</Point>
</Placemark>
<Placemark>
<name>Formosa Delight  West Coast Plaza Restaurant</name>
<description>
<p><font color="red"><i></i>
<b>PostalCode - 127371</b>
</font></p>
<p><font color="Blue"><i></i>
<b>Description - Healthier eatery at restaurant</b>
</font></p>
</description>
<Point>
<coordinates>103.765858068884,1.30362490332157</coordinates>
</Point>
</Placemark>
<Placemark>
<name>McDonalds  Harbour Front Centre</name>
<description>
<p><font color="red"><i></i>
<b>PostalCode - 099253</b>
</font></p>
<p><font color="Blue"><i></i>
<b>Description - Healthier eatery at restaurant</b>
</font></p>
</description>
<Point>
<coordinates>103.819291653011,1.26451816995793</coordinates>
</Point>
</Placemark>
<Placemark>
<name>PastaMania  Harbourfront Centre</name>
<description>
<p><font color="red"><i></i>
<b>PostalCode - 099253</b>
</font></p>
<p><font color="Blue"><i></i>
<b>Description - Healthier eatery at restaurant</b>
</font></p>
</description>
<Point>
<coordinates>103.819291653011,1.26451816995793</coordinates>
</Point>
</Placemark>
<Placemark>
<name>Pizza Hut  Harbourfront Centre</name>
<description>
<p><font color="red"><i></i>
<b>PostalCode - 099253</b>
</font></p>
<p><font color="Blue"><i></i>
<b>Description - Healthier eatery at restaurant</b>
</font></p>
</description>
<Point>
<coordinates>103.819291653011,1.26451816995793</coordinates>
</Point>
</Placemark>
<Placemark>
<name>Subway  Harbourfront Centre</name>
<description>
<p><font color="red"><i></i>
<b>PostalCode - 099253</b>
</font></p>
<p><font color="Blue"><i></i>
<b>Description - Healthier eatery at restaurant</b>
</font></p>
</description>
<Point>
<coordinates>103.819291653011,1.26451816995793</coordinates>
</Point>
</Placemark>
<Placemark>
<name>QQ Rice  Tanjong Pagar MRT</name>
<description>
<p><font color="red"><i></i>
<b>PostalCode - 069119</b>
</font></p>
<p><font color="Blue"><i></i>
<b>Description - Healthier eatery at Kiosk</b>
</font></p>
</description>
<Point>
<coordinates>103.845421481646,1.2765163531197</coordinates>
</Point>
</Placemark>
<Placemark>
<name>Subway  Infinite Studios</name>
<description>
<p><font color="red"><i></i>
<b>PostalCode - 138562</b>
</font></p>
<p><font color="Blue"><i></i>
<b>Description - Healthier eatery at restaurant</b>
</font></p>
</description>
<Point>
<coordinates>103.794616517169,1.29241482717926</coordinates>
</Point>
</Placemark>
<Placemark>
<name>Good News Café  Sec School Maris Stella</name>
<description>
<p><font color="red"><i></i>
<b>PostalCode - 368051</b>
</font></p>
<p><font color="Blue"><i></i>
<b>Description - Healthier eatery at schools</b>
</font></p>
</description>
<Point>
<coordinates>103.877813749196,1.34138897951647</coordinates>
</Point>
</Placemark>
<Placemark>
<name>McDonalds  Nanyang Technological University</name>
<description>
<p><font color="red"><i></i>
<b>PostalCode - 637331</b>
</font></p>
<p><font color="Blue"><i></i>
<b>Description - Healthier eatery at restaurant</b>
</font></p>
</description>
<Point>
<coordinates>103.679998305891,1.34718281714983</coordinates>
</Point>
</Placemark>
<Placemark>
<name>Subway  NTU</name>
<description>
<p><font color="red"><i></i>
<b>PostalCode - 637331</b>
</font></p>
<p><font color="Blue"><i></i>
<b>Description - Healthier eatery at restaurant</b>
</font></p>
</description>
<Point>
<coordinates>103.679998305891,1.34718281714983</coordinates>
</Point>
</Placemark>
<Placemark>
<name>Subway  Chinatown Point</name>
<description>
<p><font color="red"><i></i>
<b>PostalCode - 059413</b>
</font></p>
<p><font color="Blue"><i></i>
<b>Description - Healthier eatery at restaurant</b>
</font></p>
</description>
<Point>
<coordinates>103.844696761947,1.28499916466521</coordinates>
</Point>
</Placemark>
<Placemark>
<name>McDonalds  Lucky Chinatown</name>
<description>
<p><font color="red"><i></i>
<b>PostalCode - 059432</b>
</font></p>
<p><font color="Blue"><i></i>
<b>Description - Healthier eatery at restaurant</b>
</font></p>
</description>
<Point>
<coordinates>103.843309276612,1.28365344206306</coordinates>
</Point>
</Placemark>
<Placemark>
<name>Dian Xiao Er  Bedok Mall</name>
<description>
<p><font color="red"><i></i>
<b>PostalCode - 467360</b>
</font></p>
<p><font color="Blue"><i></i>
<b>Description - Healthier eatery at restaurant</b>
</font></p>
</description>
<Point>
<coordinates>103.929267336622,1.32477241506882</coordinates>
</Point>
</Placemark>
<Placemark>
<name>McDonalds  Bukit Gombak</name>
<description>
<p><font color="red"><i></i>
<b>PostalCode - 650374</b>
</font></p>
<p><font color="Blue"><i></i>
<b>Description - Healthier eatery at restaurant</b>
</font></p>
</description>
<Point>
<coordinates>103.750719349524,1.35809961112826</coordinates>
</Point>
</Placemark>
<Placemark>
<name>Good News Café  Sec School Swiss Cottage</name>
<description>
<p><font color="red"><i></i>
<b>PostalCode - 659322</b>
</font></p>
<p><font color="Blue"><i></i>
<b>Description - Healthier eatery at schools</b>
</font></p>
</description>
<Point>
<coordinates>103.750395819663,1.36471775212598</coordinates>
</Point>
</Placemark>
<Placemark>
<name>Chargrill Bar  Bukit Batok</name>
<description>
<p><font color="red"><i></i>
<b>PostalCode - 650347</b>
</font></p>
<p><font color="Blue"><i></i>
<b>Description - Healthier eatery at coffeeshop</b>
</font></p>
</description>
<Point>
<coordinates>103.751192613907,1.36227067175802</coordinates>
</Point>
</Placemark>
<Placemark>
<name>Subway  Bukit Gombak MRT Station</name>
<description>
<p><font color="red"><i></i>
<b>PostalCode - 659083</b>
</font></p>
<p><font color="Blue"><i></i>
<b>Description - Healthier eatery at restaurant</b>
</font></p>
</description>
<Point>
<coordinates>103.751790588274,1.35860869312151</coordinates>
</Point>
</Placemark>
<Placemark>
<name>Good News Café  JCCl Millenia Institute</name>
<description>
<p><font color="red"><i></i>
<b>PostalCode - 658965</b>
</font></p>
<p><font color="Blue"><i></i>
<b>Description - Healthier eatery at schools</b>
</font></p>
</description>
<Point>
<coordinates>103.741593237579,1.3503196280783</coordinates>
</Point>
</Placemark>
<Placemark>
<name>Pizza Hut  Bukit Batok 2</name>
<description>
<p><font color="red"><i></i>
<b>PostalCode - 650166</b>
</font></p>
<p><font color="Blue"><i></i>
<b>Description - Healthier eatery at restaurant</b>
</font></p>
</description>
<Point>
<coordinates>103.742824507617,1.34715287817728</coordinates>
</Point>
</Placemark>
<Placemark>
<name>Pizza Hut  Bukit Merah</name>
<description>
<p><font color="red"><i></i>
<b>PostalCode - 150162</b>
</font></p>
<p><font color="Blue"><i></i>
<b>Description - Healthier eatery at restaurant</b>
</font></p>
</description>
<Point>
<coordinates>103.8174650633,1.283837837425</coordinates>
</Point>
</Placemark>
<Placemark>
<name>Subway  Bukit Merah Central</name>
<description>
<p><font color="red"><i></i>
<b>PostalCode - 150165</b>
</font></p>
<p><font color="Blue"><i></i>
<b>Description - Healthier eatery at restaurant</b>
</font></p>
</description>
<Point>
<coordinates>103.816692475509,1.28305622970642</coordinates>
</Point>
</Placemark>
<Placemark>
<name>Chargrill Bar  Bukit Panjang Ring Road</name>
<description>
<p><font color="red"><i></i>
<b>PostalCode - 671259</b>
</font></p>
<p><font color="Blue"><i></i>
<b>Description - Healthier eatery at coffeeshop</b>
</font></p>
</description>
<Point>
<coordinates>103.773096495528,1.3772757825674</coordinates>
</Point>
</Placemark>
<Placemark>
<name>McDonalds  Alocassia</name>
<description>
<p><font color="red"><i></i>
<b>PostalCode - 259727</b>
</font></p>
<p><font color="Blue"><i></i>
<b>Description - Healthier eatery at restaurant</b>
</font></p>
</description>
<Point>
<coordinates>103.827345519853,1.31943651487942</coordinates>
</Point>
</Placemark>
<Placemark>
<name>Subway  Alocassia</name>
<description>
<p><font color="red"><i></i>
<b>PostalCode - 259727</b>
</font></p>
<p><font color="Blue"><i></i>
<b>Description - Healthier eatery at restaurant</b>
</font></p>
</description>
<Point>
<coordinates>103.827345519853,1.31943651487942</coordinates>
</Point>
</Placemark>
<Placemark>
<name>Subway   Balmoral Plaza</name>
<description>
<p><font color="red"><i></i>
<b>PostalCode - 259708</b>
</font></p>
<p><font color="Blue"><i></i>
<b>Description - Healthier eatery at restaurant</b>
</font></p>
</description>
<Point>
<coordinates>103.835487260416,1.31643996672904</coordinates>
</Point>
</Placemark>
<Placemark>
<name>Pizza Hut  Crown Centre</name>
<description>
<p><font color="red"><i></i>
<b>PostalCode - 269694</b>
</font></p>
<p><font color="Blue"><i></i>
<b>Description - Healthier eatery at restaurant</b>
</font></p>
</description>
<Point>
<coordinates>103.811154545923,1.32302679344441</coordinates>
</Point>
</Placemark>
<Placemark>
<name>Kopitiam  KKH</name>
<description>
<p><font color="red"><i></i>
<b>PostalCode - 229899</b>
</font></p>
<p><font color="Blue"><i></i>
<b>Description - Healthier eatery at food court</b>
</font></p>
</description>
<Point>
<coordinates>103.84664975342,1.31044886495468</coordinates>
</Point>
</Placemark>
<Placemark>
<name>McDonalds  KK Hospital</name>
<description>
<p><font color="red"><i></i>
<b>PostalCode - 229899</b>
</font></p>
<p><font color="Blue"><i></i>
<b>Description - Healthier eatery at restaurant</b>
</font></p>
</description>
<Point>
<coordinates>103.84664975342,1.31044886495468</coordinates>
</Point>
</Placemark>
<Placemark>
<name>Saybons  KKH</name>
<description>
<p><font color="red"><i></i>
<b>PostalCode - 229899</b>
</font></p>
<p><font color="Blue"><i></i>
<b>Description - Healthier eatery at restaurant</b>
</font></p>
</description>
<Point>
<coordinates>103.84664975342,1.31044886495468</coordinates>
</Point>
</Placemark>
<Placemark>
<name>Sodexo  KKH</name>
<description>
<p><font color="red"><i></i>
<b>PostalCode - 229899</b>
</font></p>
<p><font color="Blue"><i></i>
<b>Description - Healthier eatery at workplace cantenn</b>
</font></p>
</description>
<Point>
<coordinates>103.84664975342,1.31044886495468</coordinates>
</Point>
</Placemark>
<Placemark>
<name>Chargrill Bar  Canberra Link</name>
<description>
<p><font color="red"><i></i>
<b>PostalCode - 750505</b>
</font></p>
<p><font color="Blue"><i></i>
<b>Description - Healthier eatery at coffeeshop</b>
</font></p>
</description>
<Point>
<coordinates>103.822534398855,1.45026234412413</coordinates>
</Point>
</Placemark>
<Placemark>
<name>NTUC Foodfare  Sembawang MRT</name>
<description>
<p><font color="red"><i></i>
<b>PostalCode - 759775</b>
</font></p>
<p><font color="Blue"><i></i>
<b>Description - Healthier eatery at food court</b>
</font></p>
</description>
<Point>
<coordinates>103.82004582249,1.44905115094302</coordinates>
</Point>
</Placemark>
<Placemark>
<name>Good News Café  Special Schools Singapore Sports School</name>
<description>
<p><font color="red"><i></i>
<b>PostalCode - 737913</b>
</font></p>
<p><font color="Blue"><i></i>
<b>Description - Healthier eatery at schools</b>
</font></p>
</description>
<Point>
<coordinates>103.789435854851,1.4264122568188</coordinates>
</Point>
</Placemark>
<Placemark>
<name>QQ Rice  AMK Hub</name>
<description>
<p><font color="red"><i></i>
<b>PostalCode - 569933</b>
</font></p>
<p><font color="Blue"><i></i>
<b>Description - Healthier eatery at Kiosk</b>
</font></p>
</description>
<Point>
<coordinates>103.848398900443,1.36924925338849</coordinates>
</Point>
</Placemark>
<Placemark>
<name>Subway  AMK Hub</name>
<description>
<p><font color="red"><i></i>
<b>PostalCode - 569933</b>
</font></p>
<p><font color="Blue"><i></i>
<b>Description - Healthier eatery at restaurant</b>
</font></p>
</description>
<Point>
<coordinates>103.848398900443,1.36924925338849</coordinates>
</Point>
</Placemark>
<Placemark>
<name>Swensens  AMK Hub</name>
<description>
<p><font color="red"><i></i>
<b>PostalCode - 569933</b>
</font></p>
<p><font color="Blue"><i></i>
<b>Description - Healthier eatery at restaurant</b>
</font></p>
</description>
<Point>
<coordinates>103.848398900443,1.36924925338849</coordinates>
</Point>
</Placemark>
<Placemark>
<name>Jacks Place  Ang Mo Kio</name>
<description>
<p><font color="red"><i></i>
<b>PostalCode - 560730</b>
</font></p>
<p><font color="Blue"><i></i>
<b>Description - Healthier eatery at restaurant</b>
</font></p>
</description>
<Point>
<coordinates>103.845764841004,1.37343402064286</coordinates>
</Point>
</Placemark>
<Placemark>
<name>McDonalds  Bishan Park</name>
<description>
<p><font color="red"><i></i>
<b>PostalCode - 569981</b>
</font></p>
<p><font color="Blue"><i></i>
<b>Description - Healthier eatery at restaurant</b>
</font></p>
</description>
<Point>
<coordinates>103.846613091379,1.36109785780514</coordinates>
</Point>
</Placemark>
<Placemark>
<name>McDonalds  Ang Mo Kio Ave 10</name>
<description>
<p><font color="red"><i></i>
<b>PostalCode - 560448</b>
</font></p>
<p><font color="Blue"><i></i>
<b>Description - Healthier eatery at restaurant</b>
</font></p>
</description>
<Point>
<coordinates>103.856396287327,1.36744222897347</coordinates>
</Point>
</Placemark>
<Placemark>
<name>Pizza Hut  Ang Mo Kio</name>
<description>
<p><font color="red"><i></i>
<b>PostalCode - 560529</b>
</font></p>
<p><font color="Blue"><i></i>
<b>Description - Healthier eatery at restaurant</b>
</font></p>
</description>
<Point>
<coordinates>103.855455105992,1.37234391365862</coordinates>
</Point>
</Placemark>
<Placemark>
<name>Fish  Co  AMK HUB</name>
<description>
<p><font color="red"><i></i>
<b>PostalCode - 569933</b>
</font></p>
<p><font color="Blue"><i></i>
<b>Description - Healthier eatery at restaurant</b>
</font></p>
</description>
<Point>
<coordinates>103.848398900443,1.36924925338849</coordinates>
</Point>
</Placemark>
<Placemark>
<name>McDonalds  Great World City</name>
<description>
<p><font color="red"><i></i>
<b>PostalCode - 237994</b>
</font></p>
<p><font color="Blue"><i></i>
<b>Description - Healthier eatery at restaurant</b>
</font></p>
</description>
<Point>
<coordinates>103.831757588454,1.29380268611036</coordinates>
</Point>
</Placemark>
<Placemark>
<name>Subway  Great World City</name>
<description>
<p><font color="red"><i></i>
<b>PostalCode - 237994</b>
</font></p>
<p><font color="Blue"><i></i>
<b>Description - Healthier eatery at restaurant</b>
</font></p>
</description>
<Point>
<coordinates>103.831757588454,1.29380268611036</coordinates>
</Point>
</Placemark>
<Placemark>
<name>McDonalds  City Square Mall</name>
<description>
<p><font color="red"><i></i>
<b>PostalCode - 208539</b>
</font></p>
<p><font color="Blue"><i></i>
<b>Description - Healthier eatery at restaurant</b>
</font></p>
</description>
<Point>
<coordinates>103.856486789055,1.31139382410603</coordinates>
</Point>
</Placemark>
<Placemark>
<name>PastaMania  City Square Mall</name>
<description>
<p><font color="red"><i></i>
<b>PostalCode - 208539</b>
</font></p>
<p><font color="Blue"><i></i>
<b>Description - Healthier eatery at restaurant</b>
</font></p>
</description>
<Point>
<coordinates>103.856486789055,1.31139382410603</coordinates>
</Point>
</Placemark>
<Placemark>
<name>Subway  City Square Mall</name>
<description>
<p><font color="red"><i></i>
<b>PostalCode - 208539</b>
</font></p>
<p><font color="Blue"><i></i>
<b>Description - Healthier eatery at restaurant</b>
</font></p>
</description>
<Point>
<coordinates>103.856486789055,1.31139382410603</coordinates>
</Point>
</Placemark>
<Placemark>
<name>Swensens  City Square Mall</name>
<description>
<p><font color="red"><i></i>
<b>PostalCode - 208539</b>
</font></p>
<p><font color="Blue"><i></i>
<b>Description - Healthier eatery at restaurant</b>
</font></p>
</description>
<Point>
<coordinates>103.856486789055,1.31139382410603</coordinates>
</Point>
</Placemark>
<Placemark>
<name>Pizza Hut  Toa Payoh</name>
<description>
<p><font color="red"><i></i>
<b>PostalCode - 310085</b>
</font></p>
<p><font color="Blue"><i></i>
<b>Description - Healthier eatery at restaurant</b>
</font></p>
</description>
<Point>
<coordinates>103.848428325281,1.33628569413264</coordinates>
</Point>
</Placemark>
<Placemark>
<name>Subway  Lorong Liput</name>
<description>
<p><font color="red"><i></i>
<b>PostalCode - 277735</b>
</font></p>
<p><font color="Blue"><i></i>
<b>Description - Healthier eatery at restaurant</b>
</font></p>
</description>
<Point>
<coordinates>103.794681638889,1.31030852437835</coordinates>
</Point>
</Placemark>
<Placemark>
<name>Kopitiam  NUH</name>
<description>
<p><font color="red"><i></i>
<b>PostalCode - 119074</b>
</font></p>
<p><font color="Blue"><i></i>
<b>Description - Healthier eatery at food court</b>
</font></p>
</description>
<Point>
<coordinates>103.782651128021,1.29583443069712</coordinates>
</Point>
</Placemark>
<Placemark>
<name>Formosa Delight  NUS</name>
<description>
<p><font color="red"><i></i>
<b>PostalCode - 119078</b>
</font></p>
<p><font color="Blue"><i></i>
<b>Description - Healthier eatery at food court</b>
</font></p>
</description>
<Point>
<coordinates>103.774702914386,1.298463588937</coordinates>
</Point>
</Placemark>
<Placemark>
<name>QQ Rice  NUH</name>
<description>
<p><font color="red"><i></i>
<b>PostalCode - 119082</b>
</font></p>
<p><font color="Blue"><i></i>
<b>Description - Healthier eatery at Kiosk</b>
</font></p>
</description>
<Point>
<coordinates>103.784083689543,1.2927746521532</coordinates>
</Point>
</Placemark>
<Placemark>
<name>Subway  NUS</name>
<description>
<p><font color="red"><i></i>
<b>PostalCode - 119078</b>
</font></p>
<p><font color="Blue"><i></i>
<b>Description - Healthier eatery at restaurant</b>
</font></p>
</description>
<Point>
<coordinates>103.774702914386,1.298463588937</coordinates>
</Point>
</Placemark>
<Placemark>
<name>Subway  One  Kent Ridge</name>
<description>
<p><font color="red"><i></i>
<b>PostalCode - 119082</b>
</font></p>
<p><font color="Blue"><i></i>
<b>Description - Healthier eatery at restaurant</b>
</font></p>
</description>
<Point>
<coordinates>103.784083689543,1.2927746521532</coordinates>
</Point>
</Placemark>
<Placemark>
<name>Sodexo  Siemens at MacPherson Road</name>
<description>
<p><font color="red"><i></i>
<b>PostalCode - 348615</b>
</font></p>
<p><font color="Blue"><i></i>
<b>Description - Healthier eatery at workplace cantenn</b>
</font></p>
</description>
<Point>
<coordinates>103.870768191957,1.32744958681005</coordinates>
</Point>
</Placemark>
<Placemark>
<name>Subway  Serangoon Gardens</name>
<description>
<p><font color="red"><i></i>
<b>PostalCode - 556679</b>
</font></p>
<p><font color="Blue"><i></i>
<b>Description - Healthier eatery at restaurant</b>
</font></p>
</description>
<Point>
<coordinates>103.8650415335,1.36516104382913</coordinates>
</Point>
</Placemark>
<Placemark>
<name>NTUC Foodfare  MBFC</name>
<description>
<p><font color="red"><i></i>
<b>PostalCode - 018982</b>
</font></p>
<p><font color="Blue"><i></i>
<b>Description - Healthier eatery at food court</b>
</font></p>
</description>
<Point>
<coordinates>103.854405206174,1.27911010922272</coordinates>
</Point>
</Placemark>
<Placemark>
<name>Smoothie King  Marina Bay Link Mall</name>
<description>
<p><font color="red"><i></i>
<b>PostalCode - 018984</b>
</font></p>
<p><font color="Blue"><i></i>
<b>Description - Healthier eatery at restaurant</b>
</font></p>
</description>
<Point>
<coordinates>103.853348973971,1.28022801764498</coordinates>
</Point>
</Placemark>
<Placemark>
<name>Subway  Marina Bay Link</name>
<description>
<p><font color="red"><i></i>
<b>PostalCode - 018984</b>
</font></p>
<p><font color="Blue"><i></i>
<b>Description - Healthier eatery at restaurant</b>
</font></p>
</description>
<Point>
<coordinates>103.853348973971,1.28022801764498</coordinates>
</Point>
</Placemark>
<Placemark>
<name>Subway  Asia Square Tower 2</name>
<description>
<p><font color="red"><i></i>
<b>PostalCode - 018961</b>
</font></p>
<p><font color="Blue"><i></i>
<b>Description - Healthier eatery at restaurant</b>
</font></p>
</description>
<Point>
<coordinates>103.850794861251,1.27830763472932</coordinates>
</Point>
</Placemark>
<Placemark>
<name>Dian Xiao Er  Marina Square</name>
<description>
<p><font color="red"><i></i>
<b>PostalCode - 039594</b>
</font></p>
<p><font color="Blue"><i></i>
<b>Description - Healthier eatery at restaurant</b>
</font></p>
</description>
<Point>
<coordinates>103.857007011272,1.29145560053916</coordinates>
</Point>
</Placemark>
<Placemark>
<name>Chargrill Bar  Marine Parade Centre</name>
<description>
<p><font color="red"><i></i>
<b>PostalCode - 449410</b>
</font></p>
<p><font color="Blue"><i></i>
<b>Description - Healthier eatery at coffeeshop</b>
</font></p>
</description>
<Point>
<coordinates>103.906545497832,1.30312131512283</coordinates>
</Point>
</Placemark>
<Placemark>
<name>McDonalds  Parkway</name>
<description>
<p><font color="red"><i></i>
<b>PostalCode - 449408</b>
</font></p>
<p><font color="Blue"><i></i>
<b>Description - Healthier eatery at restaurant</b>
</font></p>
</description>
<Point>
<coordinates>103.905995717156,1.30188767638035</coordinates>
</Point>
</Placemark>
<Placemark>
<name>Formosa Delight  Parkway Parade</name>
<description>
<p><font color="red"><i></i>
<b>PostalCode - 449269</b>
</font></p>
<p><font color="Blue"><i></i>
<b>Description - Healthier eatery at food court</b>
</font></p>
</description>
<Point>
<coordinates>103.90511326612,1.30119164715155</coordinates>
</Point>
</Placemark>
<Placemark>
<name>Jacks Place  Parkway Parade</name>
<description>
<p><font color="red"><i></i>
<b>PostalCode - 449269</b>
</font></p>
<p><font color="Blue"><i></i>
<b>Description - Healthier eatery at restaurant</b>
</font></p>
</description>
<Point>
<coordinates>103.90511326612,1.30119164715155</coordinates>
</Point>
</Placemark>
<Placemark>
<name>PastaMania  Parkway Parade</name>
<description>
<p><font color="red"><i></i>
<b>PostalCode - 449269</b>
</font></p>
<p><font color="Blue"><i></i>
<b>Description - Healthier eatery at restaurant</b>
</font></p>
</description>
<Point>
<coordinates>103.90511326612,1.30119164715155</coordinates>
</Point>
</Placemark>
<Placemark>
<name>Subway  Parkway Parade</name>
<description>
<p><font color="red"><i></i>
<b>PostalCode - 449269</b>
</font></p>
<p><font color="Blue"><i></i>
<b>Description - Healthier eatery at restaurant</b>
</font></p>
</description>
<Point>
<coordinates>103.90511326612,1.30119164715155</coordinates>
</Point>
</Placemark>
<Placemark>
<name>Swensens  Parkway Parade</name>
<description>
<p><font color="red"><i></i>
<b>PostalCode - 449269</b>
</font></p>
<p><font color="Blue"><i></i>
<b>Description - Healthier eatery at restaurant</b>
</font></p>
</description>
<Point>
<coordinates>103.90511326612,1.30119164715155</coordinates>
</Point>
</Placemark>
<Placemark>
<name>Good News Café  JCCl Victoria</name>
<description>
<p><font color="red"><i></i>
<b>PostalCode - 449035</b>
</font></p>
<p><font color="Blue"><i></i>
<b>Description - Healthier eatery at schools</b>
</font></p>
</description>
<Point>
<coordinates>103.919530712389,1.30571830576664</coordinates>
</Point>
</Placemark>
<Placemark>
<name>Fish  Co  Jurong Point</name>
<description>
<p><font color="red"><i></i>
<b>PostalCode - 648886</b>
</font></p>
<p><font color="Blue"><i></i>
<b>Description - Healthier eatery at restaurant</b>
</font></p>
</description>
<Point>
<coordinates>103.706460564258,1.33983049043501</coordinates>
</Point>
</Placemark>
<Placemark>
<name>McDonalds  Jurong Point</name>
<description>
<p><font color="red"><i></i>
<b>PostalCode - 648886</b>
</font></p>
<p><font color="Blue"><i></i>
<b>Description - Healthier eatery at restaurant</b>
</font></p>
</description>
<Point>
<coordinates>103.706460564258,1.33983049043501</coordinates>
</Point>
</Placemark>
<Placemark>
<name>Soup Restaurant  Jurong Point</name>
<description>
<p><font color="red"><i></i>
<b>PostalCode - 648886</b>
</font></p>
<p><font color="Blue"><i></i>
<b>Description - Healthier eatery at restaurant</b>
</font></p>
</description>
<Point>
<coordinates>103.706460564258,1.33983049043501</coordinates>
</Point>
</Placemark>
<Placemark>
<name>Subway  Mapletree Business City</name>
<description>
<p><font color="red"><i></i>
<b>PostalCode - 117439</b>
</font></p>
<p><font color="Blue"><i></i>
<b>Description - Healthier eatery at restaurant</b>
</font></p>
</description>
<Point>
<coordinates>103.799073653329,1.27482615286731</coordinates>
</Point>
</Placemark>
<Placemark>
<name>McDonalds  Pasir Ris Sports Complex</name>
<description>
<p><font color="red"><i></i>
<b>PostalCode - 519640</b>
</font></p>
<p><font color="Blue"><i></i>
<b>Description - Healthier eatery at restaurant</b>
</font></p>
</description>
<Point>
<coordinates>103.951822181481,1.37444878738562</coordinates>
</Point>
</Placemark>
<Placemark>
<name>PastaMania  Pasir Ris Sports  Recreation Centre</name>
<description>
<p><font color="red"><i></i>
<b>PostalCode - 519640</b>
</font></p>
<p><font color="Blue"><i></i>
<b>Description - Healthier eatery at restaurant</b>
</font></p>
</description>
<Point>
<coordinates>103.951822181481,1.37444878738562</coordinates>
</Point>
</Placemark>
<Placemark>
<name>McDonalds  Pasir Ris Central</name>
<description>
<p><font color="red"><i></i>
<b>PostalCode - 518457</b>
</font></p>
<p><font color="Blue"><i></i>
<b>Description - Healthier eatery at restaurant</b>
</font></p>
</description>
<Point>
<coordinates>103.949596282368,1.37237287934525</coordinates>
</Point>
</Placemark>
<Placemark>
<name>Subway  White Sands Shopping Centre</name>
<description>
<p><font color="red"><i></i>
<b>PostalCode - 518457</b>
</font></p>
<p><font color="Blue"><i></i>
<b>Description - Healthier eatery at restaurant</b>
</font></p>
</description>
<Point>
<coordinates>103.949596282368,1.37237287934525</coordinates>
</Point>
</Placemark>
<Placemark>
<name>Fish  Co  EHUBDowntown East</name>
<description>
<p><font color="red"><i></i>
<b>PostalCode - 519599</b>
</font></p>
<p><font color="Blue"><i></i>
<b>Description - Healthier eatery at restaurant</b>
</font></p>
</description>
<Point>
<coordinates>103.954281554959,1.3775997280694</coordinates>
</Point>
</Placemark>
<Placemark>
<name>McDonalds  EHUBDowntown East</name>
<description>
<p><font color="red"><i></i>
<b>PostalCode - 519599</b>
</font></p>
<p><font color="Blue"><i></i>
<b>Description - Healthier eatery at restaurant</b>
</font></p>
</description>
<Point>
<coordinates>103.954281554959,1.3775997280694</coordinates>
</Point>
</Placemark>
<Placemark>
<name>PastaMania  EHUBDowntown East</name>
<description>
<p><font color="red"><i></i>
<b>PostalCode - 519599</b>
</font></p>
<p><font color="Blue"><i></i>
<b>Description - Healthier eatery at restaurant</b>
</font></p>
</description>
<Point>
<coordinates>103.954281554959,1.3775997280694</coordinates>
</Point>
</Placemark>
<Placemark>
<name>McDonalds  Parklane</name>
<description>
<p><font color="red"><i></i>
<b>PostalCode - 188307</b>
</font></p>
<p><font color="Blue"><i></i>
<b>Description - Healthier eatery at restaurant</b>
</font></p>
</description>
<Point>
<coordinates>103.849441664255,1.30065136163602</coordinates>
</Point>
</Placemark>
<Placemark>
<name>PastaMania  Sun Plaza</name>
<description>
<p><font color="red"><i></i>
<b>PostalCode - 757713</b>
</font></p>
<p><font color="Blue"><i></i>
<b>Description - Healthier eatery at restaurant</b>
</font></p>
</description>
<Point>
<coordinates>103.819461786469,1.44822686155732</coordinates>
</Point>
</Placemark>
<Placemark>
<name>McDonalds  Sun Plaza</name>
<description>
<p><font color="red"><i></i>
<b>PostalCode - 757713</b>
</font></p>
<p><font color="Blue"><i></i>
<b>Description - Healthier eatery at restaurant</b>
</font></p>
</description>
<Point>
<coordinates>103.819461786469,1.44822686155732</coordinates>
</Point>
</Placemark>
<Placemark>
<name>Kopitiam  Sunplaza</name>
<description>
<p><font color="red"><i></i>
<b>PostalCode - 757713</b>
</font></p>
<p><font color="Blue"><i></i>
<b>Description - Healthier eatery at food court</b>
</font></p>
</description>
<Point>
<coordinates>103.819461786469,1.44822686155732</coordinates>
</Point>
</Placemark>
<Placemark>
<name>Swensens  Thomson Plaza</name>
<description>
<p><font color="red"><i></i>
<b>PostalCode - 574408</b>
</font></p>
<p><font color="Blue"><i></i>
<b>Description - Healthier eatery at restaurant</b>
</font></p>
</description>
<Point>
<coordinates>103.830838560919,1.3546531223482</coordinates>
</Point>
</Placemark>
<Placemark>
<name>Formosa Delight  Bugis Junction</name>
<description>
<p><font color="red"><i></i>
<b>PostalCode - 188021</b>
</font></p>
<p><font color="Blue"><i></i>
<b>Description - Healthier eatery at food court</b>
</font></p>
</description>
<Point>
<coordinates>103.85532763195,1.29906832050538</coordinates>
</Point>
</Placemark>
<Placemark>
<name>Subway  Bugis Junction</name>
<description>
<p><font color="red"><i></i>
<b>PostalCode - 188021</b>
</font></p>
<p><font color="Blue"><i></i>
<b>Description - Healthier eatery at restaurant</b>
</font></p>
</description>
<Point>
<coordinates>103.85532763195,1.29906832050538</coordinates>
</Point>
</Placemark>
<Placemark>
<name>Fish  Co  Bugis Junction</name>
<description>
<p><font color="red"><i></i>
<b>PostalCode - 188021</b>
</font></p>
<p><font color="Blue"><i></i>
<b>Description - Healthier eatery at restaurant</b>
</font></p>
</description>
<Point>
<coordinates>103.85532763195,1.29906832050538</coordinates>
</Point>
</Placemark>
<Placemark>
<name>PastaMania  Bugis Junction</name>
<description>
<p><font color="red"><i></i>
<b>PostalCode - 188021</b>
</font></p>
<p><font color="Blue"><i></i>
<b>Description - Healthier eatery at restaurant</b>
</font></p>
</description>
<Point>
<coordinates>103.85532763195,1.29906832050538</coordinates>
</Point>
</Placemark>
<Placemark>
<name>McDonalds  Bugis Junction</name>
<description>
<p><font color="red"><i></i>
<b>PostalCode - 188021</b>
</font></p>
<p><font color="Blue"><i></i>
<b>Description - Healthier eatery at restaurant</b>
</font></p>
</description>
<Point>
<coordinates>103.85532763195,1.29906832050538</coordinates>
</Point>
</Placemark>
<Placemark>
<name>NTUC Foodfare  Clementi Mall</name>
<description>
<p><font color="red"><i></i>
<b>PostalCode - 129588</b>
</font></p>
<p><font color="Blue"><i></i>
<b>Description - Healthier eatery at food court</b>
</font></p>
</description>
<Point>
<coordinates>103.764422736987,1.31489653159905</coordinates>
</Point>
</Placemark>
<Placemark>
<name>Soup Restaurant  Clementi Mall</name>
<description>
<p><font color="red"><i></i>
<b>PostalCode - 129588</b>
</font></p>
<p><font color="Blue"><i></i>
<b>Description - Healthier eatery at restaurant</b>
</font></p>
</description>
<Point>
<coordinates>103.764422736987,1.31489653159905</coordinates>
</Point>
</Placemark>
<Placemark>
<name>Subway  Clementi Mall</name>
<description>
<p><font color="red"><i></i>
<b>PostalCode - 129588</b>
</font></p>
<p><font color="Blue"><i></i>
<b>Description - Healthier eatery at restaurant</b>
</font></p>
</description>
<Point>
<coordinates>103.764422736987,1.31489653159905</coordinates>
</Point>
</Placemark>
<Placemark>
<name>Swensens  Clementi Mall</name>
<description>
<p><font color="red"><i></i>
<b>PostalCode - 129588</b>
</font></p>
<p><font color="Blue"><i></i>
<b>Description - Healthier eatery at restaurant</b>
</font></p>
</description>
<Point>
<coordinates>103.764422736987,1.31489653159905</coordinates>
</Point>
</Placemark>
<Placemark>
<name>Good News Café  JCCl Jurong</name>
<description>
<p><font color="red"><i></i>
<b>PostalCode - 649809</b>
</font></p>
<p><font color="Blue"><i></i>
<b>Description - Healthier eatery at schools</b>
</font></p>
</description>
<Point>
<coordinates>103.713458752203,1.35044235316845</coordinates>
</Point>
</Placemark>
<Placemark>
<name>Subway  University Town</name>
<description>
<p><font color="red"><i></i>
<b>PostalCode - 138602</b>
</font></p>
<p><font color="Blue"><i></i>
<b>Description - Healthier eatery at restaurant</b>
</font></p>
</description>
<Point>
<coordinates>103.773491833358,1.30399584618691</coordinates>
</Point>
</Placemark>
<Placemark>
<name>Dosirak  China Square Central</name>
<description>
<p><font color="red"><i></i>
<b>PostalCode - 048423</b>
</font></p>
<p><font color="Blue"><i></i>
<b>Description - Healthier eatery at Kiosk</b>
</font></p>
</description>
<Point>
<coordinates>103.846865245029,1.28352540552882</coordinates>
</Point>
</Placemark>
<Placemark>
<name>Subway  Dawson Place</name>
<description>
<p><font color="red"><i></i>
<b>PostalCode - 142057</b>
</font></p>
<p><font color="Blue"><i></i>
<b>Description - Healthier eatery at restaurant</b>
</font></p>
</description>
<Point>
<coordinates>103.810958633349,1.29270373979868</coordinates>
</Point>
</Placemark>
<Placemark>
<name>Good News Café  Restaurant Central Manpower Base</name>
<description>
<p><font color="red"><i></i>
<b>PostalCode - 109681</b>
</font></p>
<p><font color="Blue"><i></i>
<b>Description - Healthier eatery at workplace canteen</b>
</font></p>
</description>
<Point>
<coordinates>103.81406135229,1.28025137589378</coordinates>
</Point>
</Placemark>
<Placemark>
<name>McDonalds  Singapore Polytechnic 2</name>
<description>
<p><font color="red"><i></i>
<b>PostalCode - 139651</b>
</font></p>
<p><font color="Blue"><i></i>
<b>Description - Healthier eatery at restaurant</b>
</font></p>
</description>
<Point>
<coordinates>103.776795500794,1.31103932839192</coordinates>
</Point>
</Placemark>
<Placemark>
<name>Subway  Singapore Polytechnic</name>
<description>
<p><font color="red"><i></i>
<b>PostalCode - 139651</b>
</font></p>
<p><font color="Blue"><i></i>
<b>Description - Healthier eatery at restaurant</b>
</font></p>
</description>
<Point>
<coordinates>103.776795500794,1.31103932839192</coordinates>
</Point>
</Placemark>
<Placemark>
<name>Fish  Co  East Coast</name>
<description>
<p><font color="red"><i></i>
<b>PostalCode - 428791</b>
</font></p>
<p><font color="Blue"><i></i>
<b>Description - Healthier eatery at restaurant</b>
</font></p>
</description>
<Point>
<coordinates>103.904035920039,1.30560822750413</coordinates>
</Point>
</Placemark>
<Placemark>
<name>Pizza Hut  Siglap</name>
<description>
<p><font color="red"><i></i>
<b>PostalCode - 459092</b>
</font></p>
<p><font color="Blue"><i></i>
<b>Description - Healthier eatery at restaurant</b>
</font></p>
</description>
<Point>
<coordinates>103.923949012034,1.31287513823</coordinates>
</Point>
</Placemark>
<Placemark>
<name>Subway  Eastwood Centre</name>
<description>
<p><font color="red"><i></i>
<b>PostalCode - 486442</b>
</font></p>
<p><font color="Blue"><i></i>
<b>Description - Healthier eatery at restaurant</b>
</font></p>
</description>
<Point>
<coordinates>103.955419142641,1.32144802237754</coordinates>
</Point>
</Placemark>
<Placemark>
<name>Good News Café  Sec School Greendale</name>
<description>
<p><font color="red"><i></i>
<b>PostalCode - 828866</b>
</font></p>
<p><font color="Blue"><i></i>
<b>Description - Healthier eatery at schools</b>
</font></p>
</description>
<Point>
<coordinates>103.911575518875,1.39728112635663</coordinates>
</Point>
</Placemark>
<Placemark>
<name>Good News Café  Sec School Punggol</name>
<description>
<p><font color="red"><i></i>
<b>PostalCode - 828870</b>
</font></p>
<p><font color="Blue"><i></i>
<b>Description - Healthier eatery at schools</b>
</font></p>
</description>
<Point>
<coordinates>103.909118939981,1.40212662206671</coordinates>
</Point>
</Placemark>
<Placemark>
<name>Good News Café  NUS Faculty of Engineering</name>
<description>
<p><font color="red"><i></i>
<b>PostalCode - 117576</b>
</font></p>
<p><font color="Blue"><i></i>
<b>Description - Healthier eatery at workplace canteen</b>
</font></p>
</description>
<Point>
<coordinates>103.770797083292,1.29951340287643</coordinates>
</Point>
</Placemark>
<Placemark>
<name>Subway  The Central</name>
<description>
<p><font color="red"><i></i>
<b>PostalCode - 059817</b>
</font></p>
<p><font color="Blue"><i></i>
<b>Description - Healthier eatery at restaurant</b>
</font></p>
</description>
<Point>
<coordinates>103.846555681719,1.28886325173026</coordinates>
</Point>
</Placemark>
<Placemark>
<name>McDonalds  Singapore Post Centre</name>
<description>
<p><font color="red"><i></i>
<b>PostalCode - 408600</b>
</font></p>
<p><font color="Blue"><i></i>
<b>Description - Healthier eatery at restaurant</b>
</font></p>
</description>
<Point>
<coordinates>103.894320042039,1.31889082719525</coordinates>
</Point>
</Placemark>
<Placemark>
<name>PastaMania  Singapore Post Centre</name>
<description>
<p><font color="red"><i></i>
<b>PostalCode - 408600</b>
</font></p>
<p><font color="Blue"><i></i>
<b>Description - Healthier eatery at restaurant</b>
</font></p>
</description>
<Point>
<coordinates>103.894320042039,1.31889082719525</coordinates>
</Point>
</Placemark>
<Placemark>
<name>Subway  Singapore Post Centre</name>
<description>
<p><font color="red"><i></i>
<b>PostalCode - 408600</b>
</font></p>
<p><font color="Blue"><i></i>
<b>Description - Healthier eatery at restaurant</b>
</font></p>
</description>
<Point>
<coordinates>103.894320042039,1.31889082719525</coordinates>
</Point>
</Placemark>
<Placemark>
<name>Subway  Singapore Expo</name>
<description>
<p><font color="red"><i></i>
<b>PostalCode - 486150</b>
</font></p>
<p><font color="Blue"><i></i>
<b>Description - Healthier eatery at restaurant</b>
</font></p>
</description>
<Point>
<coordinates>103.959481289742,1.33439664531205</coordinates>
</Point>
</Placemark>
<Placemark>
<name>McDonalds  Fajar</name>
<description>
<p><font color="red"><i></i>
<b>PostalCode - 670445</b>
</font></p>
<p><font color="Blue"><i></i>
<b>Description - Healthier eatery at restaurant</b>
</font></p>
</description>
<Point>
<coordinates>103.770754367573,1.38374500049241</coordinates>
</Point>
</Placemark>
<Placemark>
<name>PastaMania  Fusionopolis</name>
<description>
<p><font color="red"><i></i>
<b>PostalCode - 138632</b>
</font></p>
<p><font color="Blue"><i></i>
<b>Description - Healthier eatery at restaurant</b>
</font></p>
</description>
<Point>
<coordinates>103.787351857863,1.29906501233492</coordinates>
</Point>
</Placemark>
<Placemark>
<name>Pizza Hut  Westgate</name>
<description>
<p><font color="red"><i></i>
<b>PostalCode - 608532</b>
</font></p>
<p><font color="Blue"><i></i>
<b>Description - Healthier eatery at restaurant</b>
</font></p>
</description>
<Point>
<coordinates>103.742762943095,1.33415833003062</coordinates>
</Point>
</Placemark>
<Placemark>
<name>Pizza Hut  Ghim Moh</name>
<description>
<p><font color="red"><i></i>
<b>PostalCode - 270021</b>
</font></p>
<p><font color="Blue"><i></i>
<b>Description - Healthier eatery at restaurant</b>
</font></p>
</description>
<Point>
<coordinates>103.788532571392,1.31008152350836</coordinates>
</Point>
</Placemark>
<Placemark>
<name>Quiznos  Icon Village</name>
<description>
<p><font color="red"><i></i>
<b>PostalCode - 078877</b>
</font></p>
<p><font color="Blue"><i></i>
<b>Description - Healthier eatery at restaurant</b>
</font></p>
</description>
<Point>
<coordinates>103.844538120696,1.27516221532048</coordinates>
</Point>
</Placemark>
<Placemark>
<name>PastaMania  Cathay Cineleisure</name>
<description>
<p><font color="red"><i></i>
<b>PostalCode - 239695</b>
</font></p>
<p><font color="Blue"><i></i>
<b>Description - Healthier eatery at restaurant</b>
</font></p>
</description>
<Point>
<coordinates>103.836429331361,1.30152135522328</coordinates>
</Point>
</Placemark>
<Placemark>
<name>Smoothie King  Cathay Cineleisure</name>
<description>
<p><font color="red"><i></i>
<b>PostalCode - 239695</b>
</font></p>
<p><font color="Blue"><i></i>
<b>Description - Healthier eatery at restaurant</b>
</font></p>
</description>
<Point>
<coordinates>103.836429331361,1.30152135522328</coordinates>
</Point>
</Placemark>
<Placemark>
<name>Dian Xiao Er  Vivo City</name>
<description>
<p><font color="red"><i></i>
<b>PostalCode - 098585</b>
</font></p>
<p><font color="Blue"><i></i>
<b>Description - Healthier eatery at restaurant</b>
</font></p>
</description>
<Point>
<coordinates>103.821808296959,1.26439502238105</coordinates>
</Point>
</Placemark>
<Placemark>
<name>Formosa Delight  Vivo City</name>
<description>
<p><font color="red"><i></i>
<b>PostalCode - 098585</b>
</font></p>
<p><font color="Blue"><i></i>
<b>Description - Healthier eatery at food court</b>
</font></p>
</description>
<Point>
<coordinates>103.821808296959,1.26439502238105</coordinates>
</Point>
</Placemark>
<Placemark>
<name>McDonalds  Vivocity</name>
<description>
<p><font color="red"><i></i>
<b>PostalCode - 098585</b>
</font></p>
<p><font color="Blue"><i></i>
<b>Description - Healthier eatery at restaurant</b>
</font></p>
</description>
<Point>
<coordinates>103.821808296959,1.26439502238105</coordinates>
</Point>
</Placemark>
<Placemark>
<name>Soup Restaurant  Vivocity</name>
<description>
<p><font color="red"><i></i>
<b>PostalCode - 098585</b>
</font></p>
<p><font color="Blue"><i></i>
<b>Description - Healthier eatery at restaurant</b>
</font></p>
</description>
<Point>
<coordinates>103.821808296959,1.26439502238105</coordinates>
</Point>
</Placemark>
<Placemark>
<name>Subway  Vivocity</name>
<description>
<p><font color="red"><i></i>
<b>PostalCode - 098585</b>
</font></p>
<p><font color="Blue"><i></i>
<b>Description - Healthier eatery at restaurant</b>
</font></p>
</description>
<Point>
<coordinates>103.821808296959,1.26439502238105</coordinates>
</Point>
</Placemark>
<Placemark>
<name>Subway  Central Square</name>
<description>
<p><font color="red"><i></i>
<b>PostalCode - 059765</b>
</font></p>
<p><font color="Blue"><i></i>
<b>Description - Healthier eatery at restaurant</b>
</font></p>
</description>
<Point>
<coordinates>103.843232904727,1.28817757746361</coordinates>
</Point>
</Placemark>
<Placemark>
<name>Good News Café  JCCl National JC</name>
<description>
<p><font color="red"><i></i>
<b>PostalCode - 288913</b>
</font></p>
<p><font color="Blue"><i></i>
<b>Description - Healthier eatery at schools</b>
</font></p>
</description>
<Point>
<coordinates>103.804110581344,1.33029325343328</coordinates>
</Point>
</Placemark>
<Placemark>
<name>McDonalds  Hougang Mall</name>
<description>
<p><font color="red"><i></i>
<b>PostalCode - 538766</b>
</font></p>
<p><font color="Blue"><i></i>
<b>Description - Healthier eatery at restaurant</b>
</font></p>
</description>
<Point>
<coordinates>103.893661284097,1.37231220423245</coordinates>
</Point>
</Placemark>
<Placemark>
<name>PastaMania  Hougang Mall</name>
<description>
<p><font color="red"><i></i>
<b>PostalCode - 538766</b>
</font></p>
<p><font color="Blue"><i></i>
<b>Description - Healthier eatery at restaurant</b>
</font></p>
</description>
<Point>
<coordinates>103.893661284097,1.37231220423245</coordinates>
</Point>
</Placemark>
<Placemark>
<name>Pizza Hut  Hougang Mall</name>
<description>
<p><font color="red"><i></i>
<b>PostalCode - 538766</b>
</font></p>
<p><font color="Blue"><i></i>
<b>Description - Healthier eatery at restaurant</b>
</font></p>
</description>
<Point>
<coordinates>103.893661284097,1.37231220423245</coordinates>
</Point>
</Placemark>
<Placemark>
<name>McDonalds  Bedok Mall</name>
<description>
<p><font color="red"><i></i>
<b>PostalCode - 467360</b>
</font></p>
<p><font color="Blue"><i></i>
<b>Description - Healthier eatery at restaurant</b>
</font></p>
</description>
<Point>
<coordinates>103.929267336622,1.32477241506882</coordinates>
</Point>
</Placemark>
<Placemark>
<name>Smoothie King  Bedok Mall</name>
<description>
<p><font color="red"><i></i>
<b>PostalCode - 467360</b>
</font></p>
<p><font color="Blue"><i></i>
<b>Description - Healthier eatery at restaurant</b>
</font></p>
</description>
<Point>
<coordinates>103.929267336622,1.32477241506882</coordinates>
</Point>
</Placemark>
<Placemark>
<name>Swensens  Bedok Mall</name>
<description>
<p><font color="red"><i></i>
<b>PostalCode - 467360</b>
</font></p>
<p><font color="Blue"><i></i>
<b>Description - Healthier eatery at restaurant</b>
</font></p>
</description>
<Point>
<coordinates>103.929267336622,1.32477241506882</coordinates>
</Point>
</Placemark>
<Placemark>
<name>Pizza Hut  Bedok Mall</name>
<description>
<p><font color="red"><i></i>
<b>PostalCode - 468360</b>
</font></p>
<p><font color="Blue"><i></i>
<b>Description - Healthier eatery at restaurant</b>
</font></p>
</description>
<Point>
<coordinates>103.947432075183,1.32363193699629</coordinates>
</Point>
</Placemark>
<Placemark>
<name>Subway  Bedok Point</name>
<description>
<p><font color="red"><i></i>
<b>PostalCode - 467351</b>
</font></p>
<p><font color="Blue"><i></i>
<b>Description - Healthier eatery at restaurant</b>
</font></p>
</description>
<Point>
<coordinates>103.932272561863,1.3251592397279</coordinates>
</Point>
</Placemark>
<Placemark>
<name>Pizza Hut  Compass Point</name>
<description>
<p><font color="red"><i></i>
<b>PostalCode - 545078</b>
</font></p>
<p><font color="Blue"><i></i>
<b>Description - Healthier eatery at restaurant</b>
</font></p>
</description>
<Point>
<coordinates>103.894979702823,1.39209448261065</coordinates>
</Point>
</Placemark>
<Placemark>
<name>Pizza Hut  Kampung Ubi Community Centre</name>
<description>
<p><font color="red"><i></i>
<b>PostalCode - 409075</b>
</font></p>
<p><font color="Blue"><i></i>
<b>Description - Healthier eatery at restaurant</b>
</font></p>
</description>
<Point>
<coordinates>103.900749804436,1.31784678091415</coordinates>
</Point>
</Placemark>
<Placemark>
<name>Pizza Hut  Marina Square</name>
<description>
<p><font color="red"><i></i>
<b>PostalCode - 039594</b>
</font></p>
<p><font color="Blue"><i></i>
<b>Description - Healthier eatery at restaurant</b>
</font></p>
</description>
<Point>
<coordinates>103.857007011272,1.29145560053916</coordinates>
</Point>
</Placemark>
<Placemark>
<name>McDonalds  Funan DigitalLife Mall</name>
<description>
<p><font color="red"><i></i>
<b>PostalCode - 179097</b>
</font></p>
<p><font color="Blue"><i></i>
<b>Description - Healthier eatery at restaurant</b>
</font></p>
</description>
<Point>
<coordinates>103.84996140531,1.29142741434113</coordinates>
</Point>
</Placemark>
<Placemark>
<name>PastaMania  Funan DigitalLife Mall</name>
<description>
<p><font color="red"><i></i>
<b>PostalCode - 179097</b>
</font></p>
<p><font color="Blue"><i></i>
<b>Description - Healthier eatery at restaurant</b>
</font></p>
</description>
<Point>
<coordinates>103.84996140531,1.29142741434113</coordinates>
</Point>
</Placemark>
<Placemark>
<name>Subway  Funan DigitalLife Mall</name>
<description>
<p><font color="red"><i></i>
<b>PostalCode - 179097</b>
</font></p>
<p><font color="Blue"><i></i>
<b>Description - Healthier eatery at restaurant</b>
</font></p>
</description>
<Point>
<coordinates>103.84996140531,1.29142741434113</coordinates>
</Point>
</Placemark>
<Placemark>
<name>McDonalds  North Bridge Road</name>
<description>
<p><font color="red"><i></i>
<b>PostalCode - 188721</b>
</font></p>
<p><font color="Blue"><i></i>
<b>Description - Healthier eatery at restaurant</b>
</font></p>
</description>
<Point>
<coordinates>103.85360793171,1.29614078957889</coordinates>
</Point>
</Placemark>
<Placemark>
<name>McDonalds  Raffles City</name>
<description>
<p><font color="red"><i></i>
<b>PostalCode - 179103</b>
</font></p>
<p><font color="Blue"><i></i>
<b>Description - Healthier eatery at restaurant</b>
</font></p>
</description>
<Point>
<coordinates>103.852768001751,1.29376061751501</coordinates>
</Point>
</Placemark>
<Placemark>
<name>Subway  Raffles City Shopping Centre</name>
<description>
<p><font color="red"><i></i>
<b>PostalCode - 179103</b>
</font></p>
<p><font color="Blue"><i></i>
<b>Description - Healthier eatery at restaurant</b>
</font></p>
</description>
<Point>
<coordinates>103.852768001751,1.29376061751501</coordinates>
</Point>
</Placemark>
<Placemark>
<name>Subway  Raffles Hospital</name>
<description>
<p><font color="red"><i></i>
<b>PostalCode - 188770</b>
</font></p>
<p><font color="Blue"><i></i>
<b>Description - Healthier eatery at restaurant</b>
</font></p>
</description>
<Point>
<coordinates>103.857243398006,1.30114364006404</coordinates>
</Point>
</Placemark>
<Placemark>
<name>Good News Café  MOE</name>
<description>
<p><font color="red"><i></i>
<b>PostalCode - 138675</b>
</font></p>
<p><font color="Blue"><i></i>
<b>Description - Healthier eatery at workplace canteen</b>
</font></p>
</description>
<Point>
<coordinates>103.790606497971,1.30541940634759</coordinates>
</Point>
</Placemark>
<Placemark>
<name>McDonalds  The Metropolis</name>
<description>
<p><font color="red"><i></i>
<b>PostalCode - 138588</b>
</font></p>
<p><font color="Blue"><i></i>
<b>Description - Healthier eatery at restaurant</b>
</font></p>
</description>
<Point>
<coordinates>103.791237141792,1.30624590854689</coordinates>
</Point>
</Placemark>
<Placemark>
<name>Smoothie King  The Metropolis</name>
<description>
<p><font color="red"><i></i>
<b>PostalCode - 138588</b>
</font></p>
<p><font color="Blue"><i></i>
<b>Description - Healthier eatery at restaurant</b>
</font></p>
</description>
<Point>
<coordinates>103.791237141792,1.30624590854689</coordinates>
</Point>
</Placemark>
<Placemark>
<name>QQ Rice  One Raffles</name>
<description>
<p><font color="red"><i></i>
<b>PostalCode - 048616</b>
</font></p>
<p><font color="Blue"><i></i>
<b>Description - Healthier eatery at Kiosk</b>
</font></p>
</description>
<Point>
<coordinates>103.850982027436,1.28434027723536</coordinates>
</Point>
</Placemark>
<Placemark>
<name>Subway  One Raffles Place</name>
<description>
<p><font color="red"><i></i>
<b>PostalCode - 048616</b>
</font></p>
<p><font color="Blue"><i></i>
<b>Description - Healthier eatery at restaurant</b>
</font></p>
</description>
<Point>
<coordinates>103.850982027436,1.28434027723536</coordinates>
</Point>
</Placemark>
<Placemark>
<name>McDonalds  Scape Park</name>
<description>
<p><font color="red"><i></i>
<b>PostalCode - 237978</b>
</font></p>
<p><font color="Blue"><i></i>
<b>Description - Healthier eatery at restaurant</b>
</font></p>
</description>
<Point>
<coordinates>103.835700521352,1.30086577564841</coordinates>
</Point>
</Placemark>
<Placemark>
<name>Smoothie King  313  Somerset</name>
<description>
<p><font color="red"><i></i>
<b>PostalCode - 238895</b>
</font></p>
<p><font color="Blue"><i></i>
<b>Description - Healthier eatery at restaurant</b>
</font></p>
</description>
<Point>
<coordinates>103.838246270336,1.30100690712208</coordinates>
</Point>
</Placemark>
<Placemark>
<name>Subway  313  Somerset</name>
<description>
<p><font color="red"><i></i>
<b>PostalCode - 238895</b>
</font></p>
<p><font color="Blue"><i></i>
<b>Description - Healthier eatery at restaurant</b>
</font></p>
</description>
<Point>
<coordinates>103.838246270336,1.30100690712208</coordinates>
</Point>
</Placemark>
<Placemark>
<name>Smoothie King  Centrepoint</name>
<description>
<p><font color="red"><i></i>
<b>PostalCode - 238843</b>
</font></p>
<p><font color="Blue"><i></i>
<b>Description - Healthier eatery at restaurant</b>
</font></p>
</description>
<Point>
<coordinates>103.839758579455,1.30197838049518</coordinates>
</Point>
</Placemark>
<Placemark>
<name>Soup Restaurant  Paragon</name>
<description>
<p><font color="red"><i></i>
<b>PostalCode - 238859</b>
</font></p>
<p><font color="Blue"><i></i>
<b>Description - Healthier eatery at restaurant</b>
</font></p>
</description>
<Point>
<coordinates>103.835239985778,1.30372355519846</coordinates>
</Point>
</Placemark>
<Placemark>
<name>Pizza Hut  Lucky Plaza</name>
<description>
<p><font color="red"><i></i>
<b>PostalCode - 238863</b>
</font></p>
<p><font color="Blue"><i></i>
<b>Description - Healthier eatery at restaurant</b>
</font></p>
</description>
<Point>
<coordinates>103.833844256856,1.30455070598159</coordinates>
</Point>
</Placemark>
<Placemark>
<name>Quiznos  Orchard Central</name>
<description>
<p><font color="red"><i></i>
<b>PostalCode - 238896</b>
</font></p>
<p><font color="Blue"><i></i>
<b>Description - Healthier eatery at restaurant</b>
</font></p>
</description>
<Point>
<coordinates>103.839434417368,1.30083924341928</coordinates>
</Point>
</Placemark>
<Placemark>
<name>Pizza Hut  Plaza Singapura</name>
<description>
<p><font color="red"><i></i>
<b>PostalCode - 238839</b>
</font></p>
<p><font color="Blue"><i></i>
<b>Description - Healthier eatery at restaurant</b>
</font></p>
</description>
<Point>
<coordinates>103.844991260795,1.30011778934688</coordinates>
</Point>
</Placemark>
<Placemark>
<name>The Wok People  Takashimaya</name>
<description>
<p><font color="red"><i></i>
<b>PostalCode - 238872</b>
</font></p>
<p><font color="Blue"><i></i>
<b>Description - Healthier eatery at workplace canteen</b>
</font></p>
</description>
<Point>
<coordinates>103.834675802225,1.30242451333319</coordinates>
</Point>
</Placemark>
<Placemark>
<name>Formosa Delight  313  Somerset</name>
<description>
<p><font color="red"><i></i>
<b>PostalCode - 238895</b>
</font></p>
<p><font color="Blue"><i></i>
<b>Description - Healthier eatery at food court</b>
</font></p>
</description>
<Point>
<coordinates>103.838246270336,1.30100690712208</coordinates>
</Point>
</Placemark>
<Placemark>
<name>McDonalds  Centrepoint</name>
<description>
<p><font color="red"><i></i>
<b>PostalCode - 238843</b>
</font></p>
<p><font color="Blue"><i></i>
<b>Description - Healthier eatery at restaurant</b>
</font></p>
</description>
<Point>
<coordinates>103.839758579455,1.30197838049518</coordinates>
</Point>
</Placemark>
<Placemark>
<name>Subway  Centrepoint</name>
<description>
<p><font color="red"><i></i>
<b>PostalCode - 238843</b>
</font></p>
<p><font color="Blue"><i></i>
<b>Description - Healthier eatery at restaurant</b>
</font></p>
</description>
<Point>
<coordinates>103.839758579455,1.30197838049518</coordinates>
</Point>
</Placemark>
<Placemark>
<name>Swensens  Centrepoint</name>
<description>
<p><font color="red"><i></i>
<b>PostalCode - 238843</b>
</font></p>
<p><font color="Blue"><i></i>
<b>Description - Healthier eatery at restaurant</b>
</font></p>
</description>
<Point>
<coordinates>103.839758579455,1.30197838049518</coordinates>
</Point>
</Placemark>
<Placemark>
<name>McDonalds  Forum Galleria</name>
<description>
<p><font color="red"><i></i>
<b>PostalCode - 238884</b>
</font></p>
<p><font color="Blue"><i></i>
<b>Description - Healthier eatery at restaurant</b>
</font></p>
</description>
<Point>
<coordinates>103.82850869375,1.3061961406091</coordinates>
</Point>
</Placemark>
<Placemark>
<name>McDonalds  Lucky Plaza Kiosk</name>
<description>
<p><font color="red"><i></i>
<b>PostalCode - 238863</b>
</font></p>
<p><font color="Blue"><i></i>
<b>Description - Healthier eatery at restaurant</b>
</font></p>
</description>
<Point>
<coordinates>103.833844256856,1.30455070598159</coordinates>
</Point>
</Placemark>
<Placemark>
<name>Fish  Co  Paragon</name>
<description>
<p><font color="red"><i></i>
<b>PostalCode - 238859</b>
</font></p>
<p><font color="Blue"><i></i>
<b>Description - Healthier eatery at restaurant</b>
</font></p>
</description>
<Point>
<coordinates>103.835239985778,1.30372355519846</coordinates>
</Point>
</Placemark>
<Placemark>
<name>McDonalds  Plaza Singapura</name>
<description>
<p><font color="red"><i></i>
<b>PostalCode - 238839</b>
</font></p>
<p><font color="Blue"><i></i>
<b>Description - Healthier eatery at restaurant</b>
</font></p>
</description>
<Point>
<coordinates>103.844991260795,1.30011778934688</coordinates>
</Point>
</Placemark>
<Placemark>
<name>PastaMania  Plaza Singapura</name>
<description>
<p><font color="red"><i></i>
<b>PostalCode - 238839</b>
</font></p>
<p><font color="Blue"><i></i>
<b>Description - Healthier eatery at restaurant</b>
</font></p>
</description>
<Point>
<coordinates>103.844991260795,1.30011778934688</coordinates>
</Point>
</Placemark>
<Placemark>
<name>Saybons  Plaza Singapura</name>
<description>
<p><font color="red"><i></i>
<b>PostalCode - 238839</b>
</font></p>
<p><font color="Blue"><i></i>
<b>Description - Healthier eatery at restaurant</b>
</font></p>
</description>
<Point>
<coordinates>103.844991260795,1.30011778934688</coordinates>
</Point>
</Placemark>
<Placemark>
<name>Swensens  Plaza Singapura</name>
<description>
<p><font color="red"><i></i>
<b>PostalCode - 238839</b>
</font></p>
<p><font color="Blue"><i></i>
<b>Description - Healthier eatery at restaurant</b>
</font></p>
</description>
<Point>
<coordinates>103.844991260795,1.30011778934688</coordinates>
</Point>
</Placemark>
<Placemark>
<name>Formosa Delight  Wisma Atria</name>
<description>
<p><font color="red"><i></i>
<b>PostalCode - 238877</b>
</font></p>
<p><font color="Blue"><i></i>
<b>Description - Healthier eatery at food court</b>
</font></p>
</description>
<Point>
<coordinates>103.833189275719,1.30369924478715</coordinates>
</Point>
</Placemark>
<Placemark>
<name>Swensens  ION Orchard</name>
<description>
<p><font color="red"><i></i>
<b>PostalCode - 238801</b>
</font></p>
<p><font color="Blue"><i></i>
<b>Description - Healthier eatery at restaurant</b>
</font></p>
</description>
<Point>
<coordinates>103.83139481286,1.30403611991906</coordinates>
</Point>
</Placemark>
<Placemark>
<name>Subway  Orchird Country Club</name>
<description>
<p><font color="red"><i></i>
<b>PostalCode - 769162</b>
</font></p>
<p><font color="Blue"><i></i>
<b>Description - Healthier eatery at restaurant</b>
</font></p>
</description>
<Point>
<coordinates>103.844039570581,1.41103632621258</coordinates>
</Point>
</Placemark>
<Placemark>
<name>Café Platelets  Health Sciences Authority</name>
<description>
<p><font color="red"><i></i>
<b>PostalCode - 169078</b>
</font></p>
<p><font color="Blue"><i></i>
<b>Description - Healthier eatery at workplace canteen</b>
</font></p>
</description>
<Point>
<coordinates>103.838351900884,1.28051025860979</coordinates>
</Point>
</Placemark>
<Placemark>
<name>KOPI Café  SGH</name>
<description>
<p><font color="red"><i></i>
<b>PostalCode - 169608</b>
</font></p>
<p><font color="Blue"><i></i>
<b>Description - Healthier eatery at food court</b>
</font></p>
</description>
<Point>
<coordinates>103.833999070567,1.2785425977602</coordinates>
</Point>
</Placemark>
<Placemark>
<name>Kopitiam  Singapore General Hospital</name>
<description>
<p><font color="red"><i></i>
<b>PostalCode - 169608</b>
</font></p>
<p><font color="Blue"><i></i>
<b>Description - Healthier eatery at food court</b>
</font></p>
</description>
<Point>
<coordinates>103.833999070567,1.2785425977602</coordinates>
</Point>
</Placemark>
<Placemark>
<name>Chargrill Bar  Owen Road</name>
<description>
<p><font color="red"><i></i>
<b>PostalCode - 210046</b>
</font></p>
<p><font color="Blue"><i></i>
<b>Description - Healthier eatery at coffeeshop</b>
</font></p>
</description>
<Point>
<coordinates>103.850798050114,1.31514053398333</coordinates>
</Point>
</Placemark>
<Placemark>
<name>McDonalds  Peoples Park Complex</name>
<description>
<p><font color="red"><i></i>
<b>PostalCode - 059108</b>
</font></p>
<p><font color="Blue"><i></i>
<b>Description - Healthier eatery at restaurant</b>
</font></p>
</description>
<Point>
<coordinates>103.842519243975,1.2841342488355</coordinates>
</Point>
</Placemark>
<Placemark>
<name>PastaMania  Mapletree Business City</name>
<description>
<p><font color="red"><i></i>
<b>PostalCode - 117439</b>
</font></p>
<p><font color="Blue"><i></i>
<b>Description - Healthier eatery at restaurant</b>
</font></p>
</description>
<Point>
<coordinates>103.799073653329,1.27482615286731</coordinates>
</Point>
</Placemark>
<Placemark>
<name>McDonalds  Choa Chu Kang 4</name>
<description>
<p><font color="red"><i></i>
<b>PostalCode - 689812</b>
</font></p>
<p><font color="Blue"><i></i>
<b>Description - Healthier eatery at restaurant</b>
</font></p>
</description>
<Point>
<coordinates>103.744950057105,1.38506869181735</coordinates>
</Point>
</Placemark>
<Placemark>
<name>Good News Café  Sec School Bukit Panjang Government High</name>
<description>
<p><font color="red"><i></i>
<b>PostalCode - 689809</b>
</font></p>
<p><font color="Blue"><i></i>
<b>Description - Healthier eatery at schools</b>
</font></p>
</description>
<Point>
<coordinates>103.738353564595,1.38222590205739</coordinates>
</Point>
</Placemark>
<Placemark>
<name>Subway  Yew Tee Point</name>
<description>
<p><font color="red"><i></i>
<b>PostalCode - 689578</b>
</font></p>
<p><font color="Blue"><i></i>
<b>Description - Healthier eatery at restaurant</b>
</font></p>
</description>
<Point>
<coordinates>103.746557743136,1.39730224192383</coordinates>
</Point>
</Placemark>
<Placemark>
<name>PastaMania  Yew Tee Point</name>
<description>
<p><font color="red"><i></i>
<b>PostalCode - 689578</b>
</font></p>
<p><font color="Blue"><i></i>
<b>Description - Healthier eatery at restaurant</b>
</font></p>
</description>
<Point>
<coordinates>103.746557743136,1.39730224192383</coordinates>
</Point>
</Placemark>
<Placemark>
<name>McDonalds  Choa Chu Kang Neighbourhood 5</name>
<description>
<p><font color="red"><i></i>
<b>PostalCode - 680533</b>
</font></p>
<p><font color="Blue"><i></i>
<b>Description - Healthier eatery at restaurant</b>
</font></p>
</description>
<Point>
<coordinates>103.743099257175,1.3920742145769</coordinates>
</Point>
</Placemark>
<Placemark>
<name>McDonalds  Choa Chu Kang 62 Kiosk</name>
<description>
<p><font color="red"><i></i>
<b>PostalCode - 680623</b>
</font></p>
<p><font color="Blue"><i></i>
<b>Description - Healthier eatery at restaurant</b>
</font></p>
</description>
<Point>
<coordinates>103.747344541951,1.39832166816044</coordinates>
</Point>
</Placemark>
<Placemark>
<name>McDonalds  Choa Chu Kang 62</name>
<description>
<p><font color="red"><i></i>
<b>PostalCode - 680624</b>
</font></p>
<p><font color="Blue"><i></i>
<b>Description - Healthier eatery at restaurant</b>
</font></p>
</description>
<Point>
<coordinates>103.747005825107,1.39777454856948</coordinates>
</Point>
</Placemark>
<Placemark>
<name>Chargrill Bar  Clementi</name>
<description>
<p><font color="red"><i></i>
<b>PostalCode - 120442</b>
</font></p>
<p><font color="Blue"><i></i>
<b>Description - Healthier eatery at coffeeshop</b>
</font></p>
</description>
<Point>
<coordinates>103.764319426894,1.31375979829587</coordinates>
</Point>
</Placemark>
<Placemark>
<name>Pizza Hut  Clementi</name>
<description>
<p><font color="red"><i></i>
<b>PostalCode - 120451</b>
</font></p>
<p><font color="Blue"><i></i>
<b>Description - Healthier eatery at restaurant</b>
</font></p>
</description>
<Point>
<coordinates>103.765476440529,1.31248332120503</coordinates>
</Point>
</Placemark>
<Placemark>
<name>McDonalds  Clementi Ave 3</name>
<description>
<p><font color="red"><i></i>
<b>PostalCode - 120451</b>
</font></p>
<p><font color="Blue"><i></i>
<b>Description - Healthier eatery at restaurant</b>
</font></p>
</description>
<Point>
<coordinates>103.765476440529,1.31248332120503</coordinates>
</Point>
</Placemark>
<Placemark>
<name>Formosa Delight  ?????? Restaurant</name>
<description>
<p><font color="red"><i></i>
<b>PostalCode - 129749</b>
</font></p>
<p><font color="Blue"><i></i>
<b>Description - Healthier eatery at restaurant</b>
</font></p>
</description>
<Point>
<coordinates>103.768693296982,1.29293469924951</coordinates>
</Point>
</Placemark>
<Placemark>
<name>Chargrill Bar  Clementi West</name>
<description>
<p><font color="red"><i></i>
<b>PostalCode - 120727</b>
</font></p>
<p><font color="Blue"><i></i>
<b>Description - Healthier eatery at coffeeshop</b>
</font></p>
</description>
<Point>
<coordinates>103.763393336482,1.30434577209242</coordinates>
</Point>
</Placemark>
<Placemark>
<name>PastaMania  Jurong East Sports  Recreation Centre</name>
<description>
<p><font color="red"><i></i>
<b>PostalCode - 609517</b>
</font></p>
<p><font color="Blue"><i></i>
<b>Description - Healthier eatery at restaurant</b>
</font></p>
</description>
<Point>
<coordinates>103.729174730249,1.34685616148708</coordinates>
</Point>
</Placemark>
<Placemark>
<name>Dian Xiao Er  JEM</name>
<description>
<p><font color="red"><i></i>
<b>PostalCode - 608549</b>
</font></p>
<p><font color="Blue"><i></i>
<b>Description - Healthier eatery at restaurant</b>
</font></p>
</description>
<Point>
<coordinates>103.743284221184,1.33322926688484</coordinates>
</Point>
</Placemark>
<Placemark>
<name>Jacks Place  JEM</name>
<description>
<p><font color="red"><i></i>
<b>PostalCode - 608549</b>
</font></p>
<p><font color="Blue"><i></i>
<b>Description - Healthier eatery at restaurant</b>
</font></p>
</description>
<Point>
<coordinates>103.743284221184,1.33322926688484</coordinates>
</Point>
</Placemark>
<Placemark>
<name>PastaMania  JEM</name>
<description>
<p><font color="red"><i></i>
<b>PostalCode - 608549</b>
</font></p>
<p><font color="Blue"><i></i>
<b>Description - Healthier eatery at restaurant</b>
</font></p>
</description>
<Point>
<coordinates>103.743284221184,1.33322926688484</coordinates>
</Point>
</Placemark>
<Placemark>
<name>Chargrill Bar  Jurong</name>
<description>
<p><font color="red"><i></i>
<b>PostalCode - 600132</b>
</font></p>
<p><font color="Blue"><i></i>
<b>Description - Healthier eatery at coffeeshop</b>
</font></p>
</description>
<Point>
<coordinates>103.739636327895,1.33431050157225</coordinates>
</Point>
</Placemark>
<Placemark>
<name>McDonalds  Jurong Green CC</name>
<description>
<p><font color="red"><i></i>
<b>PostalCode - 649520</b>
</font></p>
<p><font color="Blue"><i></i>
<b>Description - Healthier eatery at restaurant</b>
</font></p>
</description>
<Point>
<coordinates>103.725341232414,1.35055636232402</coordinates>
</Point>
</Placemark>
<Placemark>
<name>Chargrill Bar  Jurong West</name>
<description>
<p><font color="red"><i></i>
<b>PostalCode - 640491</b>
</font></p>
<p><font color="Blue"><i></i>
<b>Description - Healthier eatery at coffeeshop</b>
</font></p>
</description>
<Point>
<coordinates>103.726314996636,1.34958689613394</coordinates>
</Point>
</Placemark>
<Placemark>
<name>Dian Xiao Er  Jurong Point</name>
<description>
<p><font color="red"><i></i>
<b>PostalCode - 648331</b>
</font></p>
<p><font color="Blue"><i></i>
<b>Description - Healthier eatery at restaurant</b>
</font></p>
</description>
<Point>
<coordinates>103.705367386894,1.33939777185501</coordinates>
</Point>
</Placemark>
<Placemark>
<name>Kopitiam  Jurong Point</name>
<description>
<p><font color="red"><i></i>
<b>PostalCode - 648331</b>
</font></p>
<p><font color="Blue"><i></i>
<b>Description - Healthier eatery at food court</b>
</font></p>
</description>
<Point>
<coordinates>103.705367386894,1.33939777185501</coordinates>
</Point>
</Placemark>
<Placemark>
<name>QQ Rice  Jurong Point</name>
<description>
<p><font color="red"><i></i>
<b>PostalCode - 648331</b>
</font></p>
<p><font color="Blue"><i></i>
<b>Description - Healthier eatery at Kiosk</b>
</font></p>
</description>
<Point>
<coordinates>103.705367386894,1.33939777185501</coordinates>
</Point>
</Placemark>
<Placemark>
<name>McDonalds  Ang Mo Kio</name>
<description>
<p><font color="red"><i></i>
<b>PostalCode - 569922</b>
</font></p>
<p><font color="Blue"><i></i>
<b>Description - Healthier eatery at restaurant</b>
</font></p>
</description>
<Point>
<coordinates>103.847155510614,1.36929828199203</coordinates>
</Point>
</Placemark>
<Placemark>
<name>McDonalds  Ang Mo Kio 4</name>
<description>
<p><font color="red"><i></i>
<b>PostalCode - 560163</b>
</font></p>
<p><font color="Blue"><i></i>
<b>Description - Healthier eatery at restaurant</b>
</font></p>
</description>
<Point>
<coordinates>103.838168635117,1.37355211753092</coordinates>
</Point>
</Placemark>
<Placemark>
<name>Good News Café  JCCl Anderson JC</name>
<description>
<p><font color="red"><i></i>
<b>PostalCode - 569843</b>
</font></p>
<p><font color="Blue"><i></i>
<b>Description - Healthier eatery at schools</b>
</font></p>
</description>
<Point>
<coordinates>103.845738240179,1.37805247049094</coordinates>
</Point>
</Placemark>
<Placemark>
<name>Pizza Hut  Ang Mo Kio</name>
<description>
<p><font color="red"><i></i>
<b>PostalCode - 560715</b>
</font></p>
<p><font color="Blue"><i></i>
<b>Description - Healthier eatery at restaurant</b>
</font></p>
</description>
<Point>
<coordinates>103.845905078126,1.37097362642941</coordinates>
</Point>
</Placemark>
<Placemark>
<name>Subway  Jubilee  AMK</name>
<description>
<p><font color="red"><i></i>
<b>PostalCode - 569814</b>
</font></p>
<p><font color="Blue"><i></i>
<b>Description - Healthier eatery at restaurant</b>
</font></p>
</description>
<Point>
<coordinates>103.84777540053,1.37178584614229</coordinates>
</Point>
</Placemark>
<Placemark>
<name>McDonalds  Nanyang Polytechnic</name>
<description>
<p><font color="red"><i></i>
<b>PostalCode - 569830</b>
</font></p>
<p><font color="Blue"><i></i>
<b>Description - Healthier eatery at restaurant</b>
</font></p>
</description>
<Point>
<coordinates>103.848423129331,1.37781935864456</coordinates>
</Point>
</Placemark>
<Placemark>
<name>Subway  Nanyang Polytechnic</name>
<description>
<p><font color="red"><i></i>
<b>PostalCode - 569830</b>
</font></p>
<p><font color="Blue"><i></i>
<b>Description - Healthier eatery at restaurant</b>
</font></p>
</description>
<Point>
<coordinates>103.848423129331,1.37781935864456</coordinates>
</Point>
</Placemark>
<Placemark>
<name>Subway  ITE Central</name>
<description>
<p><font color="red"><i></i>
<b>PostalCode - 567720</b>
</font></p>
<p><font color="Blue"><i></i>
<b>Description - Healthier eatery at restaurant</b>
</font></p>
</description>
<Point>
<coordinates>103.856411658702,1.37789237501412</coordinates>
</Point>
</Placemark>
<Placemark>
<name>McDonalds  Ang Mo Kio Park</name>
<description>
<p><font color="red"><i></i>
<b>PostalCode - 567740</b>
</font></p>
<p><font color="Blue"><i></i>
<b>Description - Healthier eatery at restaurant</b>
</font></p>
</description>
<Point>
<coordinates>103.844737459919,1.37247634023671</coordinates>
</Point>
</Placemark>
<Placemark>
<name>McDonalds  SpringLeaf Tower</name>
<description>
<p><font color="red"><i></i>
<b>PostalCode - 099253</b>
</font></p>
<p><font color="Blue"><i></i>
<b>Description - Healthier eatery at restaurant</b>
</font></p>
</description>
<Point>
<coordinates>103.819291653011,1.26451816995793</coordinates>
</Point>
</Placemark>
<Placemark>
<name>The Wok People  Petrochemical Company of Singapore</name>
<description>
<p><font color="red"><i></i>
<b>PostalCode - 628277</b>
</font></p>
<p><font color="Blue"><i></i>
<b>Description - Healthier eatery at workplace canteen</b>
</font></p>
</description>
<Point>
<coordinates>103.724066934943,1.26459630095514</coordinates>
</Point>
</Placemark>
<Placemark>
<name>Subway  One North</name>
<description>
<p><font color="red"><i></i>
<b>PostalCode - 138647</b>
</font></p>
<p><font color="Blue"><i></i>
<b>Description - Healthier eatery at restaurant</b>
</font></p>
</description>
<Point>
<coordinates>103.787189465551,1.29942167534579</coordinates>
</Point>
</Placemark>
<Placemark>
<name>Jacks Place  Bras Basah Complex</name>
<description>
<p><font color="red"><i></i>
<b>PostalCode - 180231</b>
</font></p>
<p><font color="Blue"><i></i>
<b>Description - Healthier eatery at restaurant</b>
</font></p>
</description>
<Point>
<coordinates>103.85352547209,1.29701339733943</coordinates>
</Point>
</Placemark>
<Placemark>
<name>McDonalds  Balestier Shaw Plaza</name>
<description>
<p><font color="red"><i></i>
<b>PostalCode - 329783</b>
</font></p>
<p><font color="Blue"><i></i>
<b>Description - Healthier eatery at restaurant</b>
</font></p>
</description>
<Point>
<coordinates>103.851055311091,1.32512686445166</coordinates>
</Point>
</Placemark>
<Placemark>
<name>Subway  Shaw Tower</name>
<description>
<p><font color="red"><i></i>
<b>PostalCode - 189702</b>
</font></p>
<p><font color="Blue"><i></i>
<b>Description - Healthier eatery at restaurant</b>
</font></p>
</description>
<Point>
<coordinates>103.856697090029,1.29649106034389</coordinates>
</Point>
</Placemark>
<Placemark>
<name>Pizza Hut  Beach Road</name>
<description>
<p><font color="red"><i></i>
<b>PostalCode - 199572</b>
</font></p>
<p><font color="Blue"><i></i>
<b>Description - Healthier eatery at restaurant</b>
</font></p>
</description>
<Point>
<coordinates>103.861733230382,1.30162320856073</coordinates>
</Point>
</Placemark>
<Placemark>
<name>Good News Café  Sec School St Anthony Canossian 2</name>
<description>
<p><font color="red"><i></i>
<b>PostalCode - 469700</b>
</font></p>
<p><font color="Blue"><i></i>
<b>Description - Healthier eatery at schools</b>
</font></p>
</description>
<Point>
<coordinates>103.941668467361,1.3349615426366</coordinates>
</Point>
</Placemark>
<Placemark>
<name>Fish  Co  Changi Airport Terminal 2</name>
<description>
<p><font color="red"><i></i>
<b>PostalCode - 819643</b>
</font></p>
<p><font color="Blue"><i></i>
<b>Description - Healthier eatery at restaurant</b>
</font></p>
</description>
<Point>
<coordinates>103.988750656923,1.3551912728997</coordinates>
</Point>
</Placemark>
<Placemark>
<name>Subway  Keypoint</name>
<description>
<p><font color="red"><i></i>
<b>PostalCode - 199597</b>
</font></p>
<p><font color="Blue"><i></i>
<b>Description - Healthier eatery at restaurant</b>
</font></p>
</description>
<Point>
<coordinates>103.86225969374,1.30234788170813</coordinates>
</Point>
</Placemark>
<Placemark>
<name>Formosa Delight  112 Katong</name>
<description>
<p><font color="red"><i></i>
<b>PostalCode - 428802</b>
</font></p>
<p><font color="Blue"><i></i>
<b>Description - Healthier eatery at food court</b>
</font></p>
</description>
<Point>
<coordinates>103.905014611495,1.30523505719994</coordinates>
</Point>
</Placemark>
<Placemark>
<name>McDonalds  National University of Singapore</name>
<description>
<p><font color="red"><i></i>
<b>PostalCode - 119077</b>
</font></p>
<p><font color="Blue"><i></i>
<b>Description - Healthier eatery at restaurant</b>
</font></p>
</description>
<Point>
<coordinates>103.777626593108,1.29699500839817</coordinates>
</Point>
</Placemark>
<Placemark>
<name>Quiznos  Far East Square</name>
<description>
<p><font color="red"><i></i>
<b>PostalCode - 049959</b>
</font></p>
<p><font color="Blue"><i></i>
<b>Description - Healthier eatery at restaurant</b>
</font></p>
</description>
<Point>
<coordinates>103.848226891882,1.28315465081342</coordinates>
</Point>
</Placemark>
<Placemark>
<name>Subway  Far East Square</name>
<description>
<p><font color="red"><i></i>
<b>PostalCode - 049959</b>
</font></p>
<p><font color="Blue"><i></i>
<b>Description - Healthier eatery at restaurant</b>
</font></p>
</description>
<Point>
<coordinates>103.848226891882,1.28315465081342</coordinates>
</Point>
</Placemark>
<Placemark>
<name>McDonalds  Queensway</name>
<description>
<p><font color="red"><i></i>
<b>PostalCode - 149066</b>
</font></p>
<p><font color="Blue"><i></i>
<b>Description - Healthier eatery at restaurant</b>
</font></p>
</description>
<Point>
<coordinates>103.802110053363,1.30406198326601</coordinates>
</Point>
</Placemark>
<Placemark>
<name>NTUC Foodfare  Simei MRT</name>
<description>
<p><font color="red"><i></i>
<b>PostalCode - 529888</b>
</font></p>
<p><font color="Blue"><i></i>
<b>Description - Healthier eatery at food court</b>
</font></p>
</description>
<Point>
<coordinates>103.953371379728,1.34320322102755</coordinates>
</Point>
</Placemark>
<Placemark>
<name>McDonalds  Boat Quay</name>
<description>
<p><font color="red"><i></i>
<b>PostalCode - 049014</b>
</font></p>
<p><font color="Blue"><i></i>
<b>Description - Healthier eatery at restaurant</b>
</font></p>
</description>
<Point>
<coordinates>103.848712734845,1.2872428591857</coordinates>
</Point>
</Placemark>
<Placemark>
<name>Fish  Co  Novena Square</name>
<description>
<p><font color="red"><i></i>
<b>PostalCode - 307683</b>
</font></p>
<p><font color="Blue"><i></i>
<b>Description - Healthier eatery at restaurant</b>
</font></p>
</description>
<Point>
<coordinates>103.843850315364,1.31996782122256</coordinates>
</Point>
</Placemark>
<Placemark>
<name>Subway  EHUBDowntown East</name>
<description>
<p><font color="red"><i></i>
<b>PostalCode - 519599</b>
</font></p>
<p><font color="Blue"><i></i>
<b>Description - Healthier eatery at restaurant</b>
</font></p>
</description>
<Point>
<coordinates>103.954281554959,1.3775997280694</coordinates>
</Point>
</Placemark>
<Placemark>
<name>Swensens  EHUBDowntown East</name>
<description>
<p><font color="red"><i></i>
<b>PostalCode - 519599</b>
</font></p>
<p><font color="Blue"><i></i>
<b>Description - Healthier eatery at restaurant</b>
</font></p>
</description>
<Point>
<coordinates>103.954281554959,1.3775997280694</coordinates>
</Point>
</Placemark>
<Placemark>
<name>McDonalds  Elias Community Centre</name>
<description>
<p><font color="red"><i></i>
<b>PostalCode - 519498</b>
</font></p>
<p><font color="Blue"><i></i>
<b>Description - Healthier eatery at restaurant</b>
</font></p>
</description>
<Point>
<coordinates>103.942548753199,1.37845017029592</coordinates>
</Point>
</Placemark>
<Placemark>
<name>Chargrill Bar  Pasir Ris</name>
<description>
<p><font color="red"><i></i>
<b>PostalCode - 510443</b>
</font></p>
<p><font color="Blue"><i></i>
<b>Description - Healthier eatery at coffeeshop</b>
</font></p>
</description>
<Point>
<coordinates>103.957347768267,1.36949317121406</coordinates>
</Point>
</Placemark>
<Placemark>
<name>McDonalds  Loyang Point</name>
<description>
<p><font color="red"><i></i>
<b>PostalCode - 510258</b>
</font></p>
<p><font color="Blue"><i></i>
<b>Description - Healthier eatery at restaurant</b>
</font></p>
</description>
<Point>
<coordinates>103.964635292333,1.367066674271</coordinates>
</Point>
</Placemark>
<Placemark>
<name>Fish  Co  Glass House Park Mall</name>
<description>
<p><font color="red"><i></i>
<b>PostalCode - 238459</b>
</font></p>
<p><font color="Blue"><i></i>
<b>Description - Healthier eatery at restaurant</b>
</font></p>
</description>
<Point>
<coordinates>103.844588730447,1.29805504904488</coordinates>
</Point>
</Placemark>
<Placemark>
<name>Subway  Visioncrest Commercial</name>
<description>
<p><font color="red"><i></i>
<b>PostalCode - 238467</b>
</font></p>
<p><font color="Blue"><i></i>
<b>Description - Healthier eatery at restaurant</b>
</font></p>
</description>
<Point>
<coordinates>103.842699711139,1.29910823753783</coordinates>
</Point>
</Placemark>
<Placemark>
<name>Good News Café  Restaurant Frangrance Hotel Imperial</name>
<description>
<p><font color="red"><i></i>
<b>PostalCode - 208187</b>
</font></p>
<p><font color="Blue"><i></i>
<b>Description - Healthier eatery at workplace canteen</b>
</font></p>
</description>
<Point>
<coordinates>103.86242505874,1.30963631994422</coordinates>
</Point>
</Placemark>
<Placemark>
<name>The Wok People  GSK Pioneer</name>
<description>
<p><font color="red"><i></i>
<b>PostalCode - 628413</b>
</font></p>
<p><font color="Blue"><i></i>
<b>Description - Healthier eatery at workplace canteen</b>
</font></p>
</description>
<Point>
<coordinates>103.660092211816,1.30833008138566</coordinates>
</Point>
</Placemark>
<Placemark>
<name>Sodexo  Schlumberger Tuas</name>
<description>
<p><font color="red"><i></i>
<b>PostalCode - 628366</b>
</font></p>
<p><font color="Blue"><i></i>
<b>Description - Healthier eatery at workplace cantenn</b>
</font></p>
</description>
<Point>
<coordinates>103.665429904291,1.30223537812772</coordinates>
</Point>
</Placemark>
<Placemark>
<name>Dian Xiao Er  Noel Building</name>
<description>
<p><font color="red"><i></i>
<b>PostalCode - 367995</b>
</font></p>
<p><font color="Blue"><i></i>
<b>Description - Healthier eatery at restaurant</b>
</font></p>
</description>
<Point>
<coordinates>103.886842037438,1.33427420751359</coordinates>
</Point>
</Placemark>
<Placemark>
<name>McDonalds  Potong Pasir</name>
<description>
<p><font color="red"><i></i>
<b>PostalCode - 350148</b>
</font></p>
<p><font color="Blue"><i></i>
<b>Description - Healthier eatery at restaurant</b>
</font></p>
</description>
<Point>
<coordinates>103.867773939823,1.33235468978963</coordinates>
</Point>
</Placemark>
<Placemark>
<name>McDonalds  Punggol 21 Community Centre</name>
<description>
<p><font color="red"><i></i>
<b>PostalCode - 828815</b>
</font></p>
<p><font color="Blue"><i></i>
<b>Description - Healthier eatery at restaurant</b>
</font></p>
</description>
<Point>
<coordinates>103.91346378789,1.39360657945379</coordinates>
</Point>
</Placemark>
<Placemark>
<name>Pizza Hut  Punggol Plaza</name>
<description>
<p><font color="red"><i></i>
<b>PostalCode - 820168</b>
</font></p>
<p><font color="Blue"><i></i>
<b>Description - Healthier eatery at restaurant</b>
</font></p>
</description>
<Point>
<coordinates>103.912890126693,1.39425662817758</coordinates>
</Point>
</Placemark>
<Placemark>
<name>Good News Café  Sec School Edgefield</name>
<description>
<p><font color="red"><i></i>
<b>PostalCode - 828814</b>
</font></p>
<p><font color="Blue"><i></i>
<b>Description - Healthier eatery at schools</b>
</font></p>
</description>
<Point>
<coordinates>103.902140899358,1.40017962424362</coordinates>
</Point>
</Placemark>
<Placemark>
<name>Kopitiam  SGH Housemens Canteen</name>
<description>
<p><font color="red"><i></i>
<b>PostalCode - 169851</b>
</font></p>
<p><font color="Blue"><i></i>
<b>Description - Healthier eatery at food court</b>
</font></p>
</description>
<Point>
<coordinates>103.834870312419,1.28178374728928</coordinates>
</Point>
</Placemark>
<Placemark>
<name>Fish  Co  Clementi Mall</name>
<description>
<p><font color="red"><i></i>
<b>PostalCode - 129588</b>
</font></p>
<p><font color="Blue"><i></i>
<b>Description - Healthier eatery at restaurant</b>
</font></p>
</description>
<Point>
<coordinates>103.764422736987,1.31489653159905</coordinates>
</Point>
</Placemark>
<Placemark>
<name>McDonalds  Clementi Mall</name>
<description>
<p><font color="red"><i></i>
<b>PostalCode - 129588</b>
</font></p>
<p><font color="Blue"><i></i>
<b>Description - Healthier eatery at restaurant</b>
</font></p>
</description>
<Point>
<coordinates>103.764422736987,1.31489653159905</coordinates>
</Point>
</Placemark>
<Placemark>
<name>McDonalds  Changi Airport T2 Transit Lounge</name>
<description>
<p><font color="red"><i></i>
<b>PostalCode - 819643</b>
</font></p>
<p><font color="Blue"><i></i>
<b>Description - Healthier eatery at restaurant</b>
</font></p>
</description>
<Point>
<coordinates>103.988750656923,1.3551912728997</coordinates>
</Point>
</Placemark>
<Placemark>
<name>McDonalds  Changi Airport T2</name>
<description>
<p><font color="red"><i></i>
<b>PostalCode - 819643</b>
</font></p>
<p><font color="Blue"><i></i>
<b>Description - Healthier eatery at restaurant</b>
</font></p>
</description>
<Point>
<coordinates>103.988750656923,1.3551912728997</coordinates>
</Point>
</Placemark>
<Placemark>
<name>Subway  Changi Airport T2</name>
<description>
<p><font color="red"><i></i>
<b>PostalCode - 819643</b>
</font></p>
<p><font color="Blue"><i></i>
<b>Description - Healthier eatery at restaurant</b>
</font></p>
</description>
<Point>
<coordinates>103.988750656923,1.3551912728997</coordinates>
</Point>
</Placemark>
<Placemark>
<name>Swensens  Changi Airport T2</name>
<description>
<p><font color="red"><i></i>
<b>PostalCode - 819643</b>
</font></p>
<p><font color="Blue"><i></i>
<b>Description - Healthier eatery at restaurant</b>
</font></p>
</description>
<Point>
<coordinates>103.988750656923,1.3551912728997</coordinates>
</Point>
</Placemark>
<Placemark>
<name>Dian Xiao Er  Terminal 3</name>
<description>
<p><font color="red"><i></i>
<b>PostalCode - 819663</b>
</font></p>
<p><font color="Blue"><i></i>
<b>Description - Healthier eatery at restaurant</b>
</font></p>
</description>
<Point>
<coordinates>103.985169321753,1.35437107041035</coordinates>
</Point>
</Placemark>
<Placemark>
<name>PastaMania  Changi Terminal 3</name>
<description>
<p><font color="red"><i></i>
<b>PostalCode - 819663</b>
</font></p>
<p><font color="Blue"><i></i>
<b>Description - Healthier eatery at restaurant</b>
</font></p>
</description>
<Point>
<coordinates>103.985169321753,1.35437107041035</coordinates>
</Point>
</Placemark>
<Placemark>
<name>Subway  Jurong Point</name>
<description>
<p><font color="red"><i></i>
<b>PostalCode - 648886</b>
</font></p>
<p><font color="Blue"><i></i>
<b>Description - Healthier eatery at restaurant</b>
</font></p>
</description>
<Point>
<coordinates>103.706460564258,1.33983049043501</coordinates>
</Point>
</Placemark>
<Placemark>
<name>Swensens  Jurong Point</name>
<description>
<p><font color="red"><i></i>
<b>PostalCode - 648886</b>
</font></p>
<p><font color="Blue"><i></i>
<b>Description - Healthier eatery at restaurant</b>
</font></p>
</description>
<Point>
<coordinates>103.706460564258,1.33983049043501</coordinates>
</Point>
</Placemark>
<Placemark>
<name>McDonalds  Jurong Spring CC</name>
<description>
<p><font color="red"><i></i>
<b>PostalCode - 649296</b>
</font></p>
<p><font color="Blue"><i></i>
<b>Description - Healthier eatery at restaurant</b>
</font></p>
</description>
<Point>
<coordinates>103.71815012502,1.34833049502145</coordinates>
</Point>
</Placemark>
<Placemark>
<name>McDonalds  Pioneer Mall</name>
<description>
<p><font color="red"><i></i>
<b>PostalCode - 640638</b>
</font></p>
<p><font color="Blue"><i></i>
<b>Description - Healthier eatery at restaurant</b>
</font></p>
</description>
<Point>
<coordinates>103.697019759656,1.3415914176516</coordinates>
</Point>
</Placemark>
<Placemark>
<name>McDonalds  Gek Poh Shopping Mall</name>
<description>
<p><font color="red"><i></i>
<b>PostalCode - 640762</b>
</font></p>
<p><font color="Blue"><i></i>
<b>Description - Healthier eatery at restaurant</b>
</font></p>
</description>
<Point>
<coordinates>103.697731773482,1.34874390399924</coordinates>
</Point>
</Placemark>
<Placemark>
<name>Subway  Gek Poh Shopping Mall</name>
<description>
<p><font color="red"><i></i>
<b>PostalCode - 640762</b>
</font></p>
<p><font color="Blue"><i></i>
<b>Description - Healthier eatery at restaurant</b>
</font></p>
</description>
<Point>
<coordinates>103.697731773482,1.34874390399924</coordinates>
</Point>
</Placemark>
<Placemark>
<name>Pizza Hut  Kallang Bahru</name>
<description>
<p><font color="red"><i></i>
<b>PostalCode - 330066</b>
</font></p>
<p><font color="Blue"><i></i>
<b>Description - Healthier eatery at restaurant</b>
</font></p>
</description>
<Point>
<coordinates>103.869690510431,1.32053950529154</coordinates>
</Point>
</Placemark>
<Placemark>
<name>Fish  Co  Keppel Bay</name>
<description>
<p><font color="red"><i></i>
<b>PostalCode - 098585</b>
</font></p>
<p><font color="Blue"><i></i>
<b>Description - Healthier eatery at restaurant</b>
</font></p>
</description>
<Point>
<coordinates>103.821808296959,1.26439502238105</coordinates>
</Point>
</Placemark>
<Placemark>
<name>Formosa Delight  Great World City</name>
<description>
<p><font color="red"><i></i>
<b>PostalCode - 237994</b>
</font></p>
<p><font color="Blue"><i></i>
<b>Description - Healthier eatery at food court</b>
</font></p>
</description>
<Point>
<coordinates>103.831757588454,1.29380268611036</coordinates>
</Point>
</Placemark>
<Placemark>
<name>Jacks Place  Great World City</name>
<description>
<p><font color="red"><i></i>
<b>PostalCode - 237994</b>
</font></p>
<p><font color="Blue"><i></i>
<b>Description - Healthier eatery at restaurant</b>
</font></p>
</description>
<Point>
<coordinates>103.831757588454,1.29380268611036</coordinates>
</Point>
</Placemark>
<Placemark>
<name>Subway  Singapore Flyer</name>
<description>
<p><font color="red"><i></i>
<b>PostalCode - 039803</b>
</font></p>
<p><font color="Blue"><i></i>
<b>Description - Healthier eatery at restaurant</b>
</font></p>
</description>
<Point>
<coordinates>103.862921984468,1.28907302541017</coordinates>
</Point>
</Placemark>
<Placemark>
<name>Chargrill Bar  Bishan 511</name>
<description>
<p><font color="red"><i></i>
<b>PostalCode - 570511</b>
</font></p>
<p><font color="Blue"><i></i>
<b>Description - Healthier eatery at coffeeshop</b>
</font></p>
</description>
<Point>
<coordinates>103.849896296742,1.34923172505313</coordinates>
</Point>
</Placemark>
<Placemark>
<name>Chargrill Bar  Bishan 280</name>
<description>
<p><font color="red"><i></i>
<b>PostalCode - 570280</b>
</font></p>
<p><font color="Blue"><i></i>
<b>Description - Healthier eatery at coffeeshop</b>
</font></p>
</description>
<Point>
<coordinates>103.844275474087,1.35742152634054</coordinates>
</Point>
</Placemark>
<Placemark>
<name>McDonalds  Bendemeer</name>
<description>
<p><font color="red"><i></i>
<b>PostalCode - 330022</b>
</font></p>
<p><font color="Blue"><i></i>
<b>Description - Healthier eatery at restaurant</b>
</font></p>
</description>
<Point>
<coordinates>103.861403474974,1.31817676110283</coordinates>
</Point>
</Placemark>
<Placemark>
<name>Good News Café  Sec School River Valley High</name>
<description>
<p><font color="red"><i></i>
<b>PostalCode - 649934</b>
</font></p>
<p><font color="Blue"><i></i>
<b>Description - Healthier eatery at schools</b>
</font></p>
</description>
<Point>
<coordinates>103.710232275476,1.34271629738782</coordinates>
</Point>
</Placemark>
<Placemark>
<name>Pizza Hut  Boon Lay Community Centre</name>
<description>
<p><font color="red"><i></i>
<b>PostalCode - 649882</b>
</font></p>
<p><font color="Blue"><i></i>
<b>Description - Healthier eatery at restaurant</b>
</font></p>
</description>
<Point>
<coordinates>103.711494623015,1.34822585984252</coordinates>
</Point>
</Placemark>
<Placemark>
<name>Jacks Place  Safra Jurong</name>
<description>
<p><font color="red"><i></i>
<b>PostalCode - 649848</b>
</font></p>
<p><font color="Blue"><i></i>
<b>Description - Healthier eatery at restaurant</b>
</font></p>
</description>
<Point>
<coordinates>103.706278415074,1.33500754576321</coordinates>
</Point>
</Placemark>
<Placemark>
<name>Subway  Jurong Safra Club</name>
<description>
<p><font color="red"><i></i>
<b>PostalCode - 649848</b>
</font></p>
<p><font color="Blue"><i></i>
<b>Description - Healthier eatery at restaurant</b>
</font></p>
</description>
<Point>
<coordinates>103.706278415074,1.33500754576321</coordinates>
</Point>
</Placemark>
<Placemark>
<name>McDonalds  Trade Hub 21</name>
<description>
<p><font color="red"><i></i>
<b>PostalCode - 609971</b>
</font></p>
<p><font color="Blue"><i></i>
<b>Description - Healthier eatery at restaurant</b>
</font></p>
</description>
<Point>
<coordinates>103.751672687971,1.32822844107263</coordinates>
</Point>
</Placemark>
<Placemark>
<name>McDonalds  Jurong Central Park</name>
<description>
<p><font color="red"><i></i>
<b>PostalCode - 649849</b>
</font></p>
<p><font color="Blue"><i></i>
<b>Description - Healthier eatery at restaurant</b>
</font></p>
</description>
<Point>
<coordinates>103.708655268363,1.33917516628848</coordinates>
</Point>
</Placemark>
<Placemark>
<name>McDonalds  Bukit Batok</name>
<description>
<p><font color="red"><i></i>
<b>PostalCode - 650632</b>
</font></p>
<p><font color="Blue"><i></i>
<b>Description - Healthier eatery at restaurant</b>
</font></p>
</description>
<Point>
<coordinates>103.750538343417,1.34941251469754</coordinates>
</Point>
</Placemark>
<Placemark>
<name>PastaMania  West Mall</name>
<description>
<p><font color="red"><i></i>
<b>PostalCode - 658713</b>
</font></p>
<p><font color="Blue"><i></i>
<b>Description - Healthier eatery at restaurant</b>
</font></p>
</description>
<Point>
<coordinates>103.749021661063,1.35018949225919</coordinates>
</Point>
</Placemark>
<Placemark>
<name>Pizza Hut  West Mall</name>
<description>
<p><font color="red"><i></i>
<b>PostalCode - 658713</b>
</font></p>
<p><font color="Blue"><i></i>
<b>Description - Healthier eatery at restaurant</b>
</font></p>
</description>
<Point>
<coordinates>103.749021661063,1.35018949225919</coordinates>
</Point>
</Placemark>
<Placemark>
<name>Subway  West Mall</name>
<description>
<p><font color="red"><i></i>
<b>PostalCode - 658713</b>
</font></p>
<p><font color="Blue"><i></i>
<b>Description - Healthier eatery at restaurant</b>
</font></p>
</description>
<Point>
<coordinates>103.749021661063,1.35018949225919</coordinates>
</Point>
</Placemark>
<Placemark>
<name>Swensens  West Mall</name>
<description>
<p><font color="red"><i></i>
<b>PostalCode - 658713</b>
</font></p>
<p><font color="Blue"><i></i>
<b>Description - Healthier eatery at restaurant</b>
</font></p>
</description>
<Point>
<coordinates>103.749021661063,1.35018949225919</coordinates>
</Point>
</Placemark>
<Placemark>
<name>Chargrill Bar  Bukit Batok East</name>
<description>
<p><font color="red"><i></i>
<b>PostalCode - 650273</b>
</font></p>
<p><font color="Blue"><i></i>
<b>Description - Healthier eatery at coffeeshop</b>
</font></p>
</description>
<Point>
<coordinates>103.757578910595,1.34842297563835</coordinates>
</Point>
</Placemark>
<Placemark>
<name>McDonalds  Bukit Batok East CC</name>
<description>
<p><font color="red"><i></i>
<b>PostalCode - 659841</b>
</font></p>
<p><font color="Blue"><i></i>
<b>Description - Healthier eatery at restaurant</b>
</font></p>
</description>
<Point>
<coordinates>103.758195501566,1.34898772747096</coordinates>
</Point>
</Placemark>
<Placemark>
<name>McDonalds  Bukit Batok West</name>
<description>
<p><font color="red"><i></i>
<b>PostalCode - 650152</b>
</font></p>
<p><font color="Blue"><i></i>
<b>Description - Healthier eatery at restaurant</b>
</font></p>
</description>
<Point>
<coordinates>103.744256946216,1.34830222608994</coordinates>
</Point>
</Placemark>
<Placemark>
<name>Chargrill Bar  Serangoon</name>
<description>
<p><font color="red"><i></i>
<b>PostalCode - 550261</b>
</font></p>
<p><font color="Blue"><i></i>
<b>Description - Healthier eatery at coffeeshop</b>
</font></p>
</description>
<Point>
<coordinates>103.872366343991,1.35388065389954</coordinates>
</Point>
</Placemark>
<Placemark>
<name>McDonalds  Serangoon Garden</name>
<description>
<p><font color="red"><i></i>
<b>PostalCode - 555951</b>
</font></p>
<p><font color="Blue"><i></i>
<b>Description - Healthier eatery at restaurant</b>
</font></p>
</description>
<Point>
<coordinates>103.865743614834,1.36329005413267</coordinates>
</Point>
</Placemark>