[{"ORREquirement":[{"requirement_description":{"operator":"≥","operator_amt":"3","parentLayer":"Education","subLayer":"secondary","sublayer_column":"SCH_TYPE","within_range":"2000"},"requirement_points":{"type":"FeatureCollection","features":[{"type":"Feature","properties":{"SCH_NAME":"CHIJ (KELLOCK)","ADDRESS":"1 Bukit Teresa Road","SCH_TYPE":"secondary","SCH_CODE":"SC336","SCH_RANK":null,"POSTCODE":"099757"},"geometry":{"type":"Point","coordinates":[103.8280695662709,1.2748446001329607]}},{"type":"Feature","properties":{"SCH_NAME":"OUTRAM SECONDARY SCHOOL","ADDRESS":"3 YORK HILL","SCH_TYPE":"secondary","SCH_CODE":"SC277","SCH_RANK":null,"POSTCODE":"168622"},"geometry":{"type":"Point","coordinates":[103.8371370681687,1.2865266671779698]}}],"csr":{"type":"name","properties":{"name":"urn:ogc:def:crs:EPSG::3414"}}},"requirement_result":false}],"HDB_JSON":{"type":"Polygon","coordinates":[[[103.841487,1.2775599],[103.8416793,1.2776556],[103.8418468,1.277319],[103.8416537,1.2772233],[103.841487,1.2775599]]],"properties":{"POSTCODE":85301,"PlanningArea":"OUTRAM","DwellingUnits":264,"length":8}},"totalRequirement":false},{"ORREquirement":[{"requirement_description":{"operator":"≥","operator_amt":"3","parentLayer":"Education","subLayer":"secondary","sublayer_column":"SCH_TYPE","within_range":"2000"},"requirement_points":{"type":"FeatureCollection","features":[{"type":"Feature","properties":{"SCH_NAME":"BUKIT MERAH SECONDARY SCHOOL","ADDRESS":"10 LENGKOK BAHRU","SCH_TYPE":"secondary","SCH_CODE":"SC215","SCH_RANK":null,"POSTCODE":"159050"},"geometry":{"type":"Point","coordinates":[103.81301597096538,1.2856796681324012]}},{"type":"Feature","properties":{"SCH_NAME":"CHIJ (KELLOCK)","ADDRESS":"1 Bukit Teresa Road","SCH_TYPE":"secondary","SCH_CODE":"SC336","SCH_RANK":null,"POSTCODE":"099757"},"geometry":{"type":"Point","coordinates":[103.8280695662709,1.2748446001329607]}},{"type":"Feature","properties":{"SCH_NAME":"CHIJ ST. THERESA'S CONVENT","ADDRESS":"160 LOWER DELTA ROAD","SCH_TYPE":"secondary","SCH_CODE":"SC343","SCH_RANK":null,"POSTCODE":"099138"},"geometry":{"type":"Point","coordinates":[103.82244070209906,1.2753517755554862]}},{"type":"Feature","properties":{"SCH_NAME":"CRESCENT GIRLS' SCHOOL","ADDRESS":"357 TANGLIN ROAD","SCH_TYPE":"secondary","SCH_CODE":"SC347","SCH_RANK":null,"POSTCODE":"247961"},"geometry":{"type":"Point","coordinates":[103.81819816317538,1.2937902924433673]}},{"type":"Feature","properties":{"SCH_NAME":"GAN ENG SENG SCHOOL","ADDRESS":"1 HENDERSON ROAD","SCH_TYPE":"secondary","SCH_CODE":"SC349","SCH_RANK":null,"POSTCODE":"159561"},"geometry":{"type":"Point","coordinates":[103.8237336726833,1.2890711448417653]}},{"type":"Feature","properties":{"SCH_NAME":"HENDERSON SECONDARY SCHOOL","ADDRESS":"100 HENDERSON RD","SCH_TYPE":"secondary","SCH_CODE":"SC249","SCH_RANK":null,"POSTCODE":"159544"},"geometry":{"type":"Point","coordinates":[103.81952622391036,1.2850982405658151]}},{"type":"Feature","properties":{"SCH_NAME":"QUEENSTOWN SECONDARY SCHOOL","ADDRESS":"1 STRATHMORE ROAD","SCH_TYPE":"secondary","SCH_CODE":"SC287","SCH_RANK":null,"POSTCODE":"148800"},"geometry":{"type":"Point","coordinates":[103.81319097994266,1.2935212676707875]}}],"csr":{"type":"name","properties":{"name":"urn:ogc:def:crs:EPSG::3414"}}},"requirement_result":true}],"HDB_JSON":{"type":"Polygon","coordinates":[[[103.8171478,1.2786424],[103.817827,1.2788706],[103.8178737,1.2787319],[103.8171944,1.2785037],[103.8171478,1.2786424]]],"properties":{"POSTCODE":90003,"PlanningArea":"BUKIT MERAH","DwellingUnits":264,"length":8}},"totalRequirement":true},{"ORREquirement":[{"requirement_description":{"operator":"≥","operator_amt":"3","parentLayer":"Education","subLayer":"secondary","sublayer_column":"SCH_TYPE","within_range":"2000"},"requirement_points":{"type":"FeatureCollection","features":[{"type":"Feature","properties":{"SCH_NAME":"CHIJ (KELLOCK)","ADDRESS":"1 Bukit Teresa Road","SCH_TYPE":"secondary","SCH_CODE":"SC336","SCH_RANK":null,"POSTCODE":"099757"},"geometry":{"type":"Point","coordinates":[103.8280695662709,1.2748446001329607]}},{"type":"Feature","properties":{"SCH_NAME":"OUTRAM SECONDARY SCHOOL","ADDRESS":"3 YORK HILL","SCH_TYPE":"secondary","SCH_CODE":"SC277","SCH_RANK":null,"POSTCODE":"168622"},"geometry":{"type":"Point","coordinates":[103.8371370681687,1.2865266671779698]}}],"csr":{"type":"name","properties":{"name":"urn:ogc:def:crs:EPSG::3414"}}},"requirement_result":false}],"HDB_JSON":{"type":"Polygon","coordinates":[[[103.8409932,1.2764979],[103.8411619,1.2768146],[103.841332,1.276724],[103.8411632,1.2764073],[103.8411437,1.2764178],[103.8410428,1.2764715],[103.8409932,1.2764979]]],"properties":{"POSTCODE":85501,"PlanningArea":"OUTRAM","DwellingUnits":264,"length":8}},"totalRequirement":false},{"ORREquirement":[{"requirement_description":{"operator":"≥","operator_amt":"3","parentLayer":"Education","subLayer":"secondary","sublayer_column":"SCH_TYPE","within_range":"2000"},"requirement_points":{"type":"FeatureCollection","features":[{"type":"Feature","properties":{"SCH_NAME":"CHIJ (KELLOCK)","ADDRESS":"1 Bukit Teresa Road","SCH_TYPE":"secondary","SCH_CODE":"SC336","SCH_RANK":null,"POSTCODE":"099757"},"geometry":{"type":"Point","coordinates":[103.8280695662709,1.2748446001329607]}},{"type":"Feature","properties":{"SCH_NAME":"OUTRAM SECONDARY SCHOOL","ADDRESS":"3 YORK HILL","SCH_TYPE":"secondary","SCH_CODE":"SC277","SCH_RANK":null,"POSTCODE":"168622"},"geometry":{"type":"Point","coordinates":[103.8371370681687,1.2865266671779698]}}],"csr":{"type":"name","properties":{"name":"urn:ogc:def:crs:EPSG::3414"}}},"requirement_result":false}],"HDB_JSON":{"type":"Polygon","coordinates":[[[103.8410652,1.2761215],[103.8410892,1.2761285],[103.8411937,1.2761589],[103.8412545,1.2761766],[103.8413552,1.2758311],[103.8411659,1.2757759],[103.8410652,1.2761215]]],"properties":{"POSTCODE":85601,"PlanningArea":"OUTRAM","DwellingUnits":264,"length":8}},"totalRequirement":false},{"ORREquirement":[{"requirement_description":{"operator":"≥","operator_amt":"3","parentLayer":"Education","subLayer":"secondary","sublayer_column":"SCH_TYPE","within_range":"2000"},"requirement_points":{"type":"FeatureCollection","features":[{"type":"Feature","properties":{"SCH_NAME":"CHIJ (KELLOCK)","ADDRESS":"1 Bukit Teresa Road","SCH_TYPE":"secondary","SCH_CODE":"SC336","SCH_RANK":null,"POSTCODE":"099757"},"geometry":{"type":"Point","coordinates":[103.8280695662709,1.2748446001329607]}},{"type":"Feature","properties":{"SCH_NAME":"OUTRAM SECONDARY SCHOOL","ADDRESS":"3 YORK HILL","SCH_TYPE":"secondary","SCH_CODE":"SC277","SCH_RANK":null,"POSTCODE":"168622"},"geometry":{"type":"Point","coordinates":[103.8371370681687,1.2865266671779698]}}],"csr":{"type":"name","properties":{"name":"urn:ogc:def:crs:EPSG::3414"}}},"requirement_result":false}],"HDB_JSON":{"type":"Polygon","coordinates":[[[103.8412904,1.2769266],[103.8416146,1.2770857],[103.8416994,1.276913],[103.8413752,1.2767539],[103.8412904,1.2769266]]],"properties":{"POSTCODE":85401,"PlanningArea":"OUTRAM","DwellingUnits":264,"length":8}},"totalRequirement":false},{"ORREquirement":[{"requirement_description":{"operator":"≥","operator_amt":"3","parentLayer":"Education","subLayer":"secondary","sublayer_column":"SCH_TYPE","within_range":"2000"},"requirement_points":{"type":"FeatureCollection","features":[{"type":"Feature","properties":{"SCH_NAME":"BUKIT MERAH SECONDARY SCHOOL","ADDRESS":"10 LENGKOK BAHRU","SCH_TYPE":"secondary","SCH_CODE":"SC215","SCH_RANK":null,"POSTCODE":"159050"},"geometry":{"type":"Point","coordinates":[103.81301597096538,1.2856796681324012]}},{"type":"Feature","properties":{"SCH_NAME":"CHIJ (KELLOCK)","ADDRESS":"1 Bukit Teresa Road","SCH_TYPE":"secondary","SCH_CODE":"SC336","SCH_RANK":null,"POSTCODE":"099757"},"geometry":{"type":"Point","coordinates":[103.8280695662709,1.2748446001329607]}},{"type":"Feature","properties":{"SCH_NAME":"CHIJ ST. THERESA'S CONVENT","ADDRESS":"160 LOWER DELTA ROAD","SCH_TYPE":"secondary","SCH_CODE":"SC343","SCH_RANK":null,"POSTCODE":"099138"},"geometry":{"type":"Point","coordinates":[103.82244070209906,1.2753517755554862]}},{"type":"Feature","properties":{"SCH_NAME":"CRESCENT GIRLS' SCHOOL","ADDRESS":"357 TANGLIN ROAD","SCH_TYPE":"secondary","SCH_CODE":"SC347","SCH_RANK":null,"POSTCODE":"247961"},"geometry":{"type":"Point","coordinates":[103.81819816317538,1.2937902924433673]}},{"type":"Feature","properties":{"SCH_NAME":"GAN ENG SENG SCHOOL","ADDRESS":"1 HENDERSON ROAD","SCH_TYPE":"secondary","SCH_CODE":"SC349","SCH_RANK":null,"POSTCODE":"159561"},"geometry":{"type":"Point","coordinates":[103.8237336726833,1.2890711448417653]}},{"type":"Feature","properties":{"SCH_NAME":"HENDERSON SECONDARY SCHOOL","ADDRESS":"100 HENDERSON RD","SCH_TYPE":"secondary","SCH_CODE":"SC249","SCH_RANK":null,"POSTCODE":"159544"},"geometry":{"type":"Point","coordinates":[103.81952622391036,1.2850982405658151]}},{"type":"Feature","properties":{"SCH_NAME":"QUEENSTOWN SECONDARY SCHOOL","ADDRESS":"1 STRATHMORE ROAD","SCH_TYPE":"secondary","SCH_CODE":"SC287","SCH_RANK":null,"POSTCODE":"148800"},"geometry":{"type":"Point","coordinates":[103.81319097994266,1.2935212676707875]}}],"csr":{"type":"name","properties":{"name":"urn:ogc:def:crs:EPSG::3414"}}},"requirement_result":true}],"HDB_JSON":{"type":"Polygon","coordinates":[[[103.8175961,1.2793768],[103.8181899,1.2795794],[103.8182374,1.2794404],[103.8176436,1.2792378],[103.8175961,1.2793768]]],"properties":{"POSTCODE":90001,"PlanningArea":"BUKIT MERAH","DwellingUnits":148,"length":8}},"totalRequirement":true},{"ORREquirement":[{"requirement_description":{"operator":"≥","operator_amt":"3","parentLayer":"Education","subLayer":"secondary","sublayer_column":"SCH_TYPE","within_range":"2000"},"requirement_points":{"type":"FeatureCollection","features":[{"type":"Feature","properties":{"SCH_NAME":"CHIJ (KELLOCK)","ADDRESS":"1 Bukit Teresa Road","SCH_TYPE":"secondary","SCH_CODE":"SC336","SCH_RANK":null,"POSTCODE":"099757"},"geometry":{"type":"Point","coordinates":[103.8280695662709,1.2748446001329607]}},{"type":"Feature","properties":{"SCH_NAME":"OUTRAM SECONDARY SCHOOL","ADDRESS":"3 YORK HILL","SCH_TYPE":"secondary","SCH_CODE":"SC277","SCH_RANK":null,"POSTCODE":"168622"},"geometry":{"type":"Point","coordinates":[103.8371370681687,1.2865266671779698]}}],"csr":{"type":"name","properties":{"name":"urn:ogc:def:crs:EPSG::3414"}}},"requirement_result":false}],"HDB_JSON":{"type":"Polygon","coordinates":[[[103.8411804,1.2757103],[103.8413774,1.2757449],[103.8414345,1.2754199],[103.8412375,1.2753853],[103.8411804,1.2757103]]],"properties":{"POSTCODE":85701,"PlanningArea":"OUTRAM","DwellingUnits":264,"length":8}},"totalRequirement":false},{"ORREquirement":[{"requirement_description":{"operator":"≥","operator_amt":"3","parentLayer":"Education","subLayer":"secondary","sublayer_column":"SCH_TYPE","within_range":"2000"},"requirement_points":{"type":"FeatureCollection","features":[{"type":"Feature","properties":{"SCH_NAME":"BUKIT MERAH SECONDARY SCHOOL","ADDRESS":"10 LENGKOK BAHRU","SCH_TYPE":"secondary","SCH_CODE":"SC215","SCH_RANK":null,"POSTCODE":"159050"},"geometry":{"type":"Point","coordinates":[103.81301597096538,1.2856796681324012]}},{"type":"Feature","properties":{"SCH_NAME":"CHIJ (KELLOCK)","ADDRESS":"1 Bukit Teresa Road","SCH_TYPE":"secondary","SCH_CODE":"SC336","SCH_RANK":null,"POSTCODE":"099757"},"geometry":{"type":"Point","coordinates":[103.8280695662709,1.2748446001329607]}},{"type":"Feature","properties":{"SCH_NAME":"CHIJ ST. THERESA'S CONVENT","ADDRESS":"160 LOWER DELTA ROAD","SCH_TYPE":"secondary","SCH_CODE":"SC343","SCH_RANK":null,"POSTCODE":"099138"},"geometry":{"type":"Point","coordinates":[103.82244070209906,1.2753517755554862]}},{"type":"Feature","properties":{"SCH_NAME":"CRESCENT GIRLS' SCHOOL","ADDRESS":"357 TANGLIN ROAD","SCH_TYPE":"secondary","SCH_CODE":"SC347","SCH_RANK":null,"POSTCODE":"247961"},"geometry":{"type":"Point","coordinates":[103.81819816317538,1.2937902924433673]}},{"type":"Feature","properties":{"SCH_NAME":"GAN ENG SENG SCHOOL","ADDRESS":"1 HENDERSON ROAD","SCH_TYPE":"secondary","SCH_CODE":"SC349","SCH_RANK":null,"POSTCODE":"159561"},"geometry":{"type":"Point","coordinates":[103.8237336726833,1.2890711448417653]}},{"type":"Feature","properties":{"SCH_NAME":"HENDERSON SECONDARY SCHOOL","ADDRESS":"100 HENDERSON RD","SCH_TYPE":"secondary","SCH_CODE":"SC249","SCH_RANK":null,"POSTCODE":"159544"},"geometry":{"type":"Point","coordinates":[103.81952622391036,1.2850982405658151]}},{"type":"Feature","properties":{"SCH_NAME":"QUEENSTOWN SECONDARY SCHOOL","ADDRESS":"1 STRATHMORE ROAD","SCH_TYPE":"secondary","SCH_CODE":"SC287","SCH_RANK":null,"POSTCODE":"148800"},"geometry":{"type":"Point","coordinates":[103.81319097994266,1.2935212676707875]}}],"csr":{"type":"name","properties":{"name":"urn:ogc:def:crs:EPSG::3414"}}},"requirement_result":true}],"HDB_JSON":{"type":"Polygon","coordinates":[[[103.8180947,1.2786548],[103.8187753,1.2789139],[103.8188245,1.2787846],[103.8181439,1.2785255],[103.8180947,1.2786548]]],"properties":{"POSTCODE":90004,"PlanningArea":"BUKIT MERAH","DwellingUnits":264,"length":8}},"totalRequirement":true}]