[{"ORREquirement":[{"requirement_description":{"operator":"≥","operator_amt":"3","parentLayer":"Education","subLayer":"primary","sublayer_column":"SCH_TYPE","within_range":"2000"},"requirement_points":{"type":"FeatureCollection","features":[{"type":"Feature","properties":{"SCH_NAME":"CANTONMENT PRIMARY SCHOOL","ADDRESS":"1 Cantonment Close","SCH_TYPE":"primary","SCH_CODE":"SC036","SCH_RANK":null,"POSTCODE":"A88256"},"geometry":{"type":"Point","coordinates":[103.83997978330996,1.2755963674817241]}},{"type":"Feature","properties":{"SCH_NAME":"RADIN MAS PRIMARY SCHOOL","ADDRESS":"1 BUKIT PURMEI AVENUE","SCH_TYPE":"primary","SCH_CODE":"SC128","SCH_RANK":"1","POSTCODE":"099840"},"geometry":{"type":"Point","coordinates":[103.82418827046628,1.2749582362284237]}},{"type":"Feature","properties":{"SCH_NAME":"RIVER VALLEY PRIMARY SCHOOL","ADDRESS":"2 RIVER VALLEY GREEN","SCH_TYPE":"primary","SCH_CODE":"SC130","SCH_RANK":null,"POSTCODE":"237993"},"geometry":{"type":"Point","coordinates":[103.83629374443399,1.2938177356758602]}},{"type":"Feature","properties":{"SCH_NAME":"ZHANGDE PRIMARY SCHOOL","ADDRESS":"51 Jalan Membina","SCH_TYPE":"primary","SCH_CODE":"SC177","SCH_RANK":null,"POSTCODE":"169485"},"geometry":{"type":"Point","coordinates":[103.8261489775843,1.284498220028072]}}],"csr":{"type":"name","properties":{"name":"urn:ogc:def:crs:EPSG::3414"}}},"requirement_result":true}],"HDB_JSON":{"type":"Polygon","coordinates":[[[103.841487,1.2775599],[103.8416793,1.2776556],[103.8418468,1.277319],[103.8416537,1.2772233],[103.841487,1.2775599]]],"properties":{"POSTCODE":85301,"PlanningArea":"OUTRAM","DwellingUnits":264,"length":8}},"totalRequirement":true},{"ORREquirement":[{"requirement_description":{"operator":"≥","operator_amt":"3","parentLayer":"Education","subLayer":"primary","sublayer_column":"SCH_TYPE","within_range":"2000"},"requirement_points":{"type":"FeatureCollection","features":[{"type":"Feature","properties":{"SCH_NAME":"ALEXANDRA PRIMARY SCHOOL","ADDRESS":"2A Prince Charles Crescent","SCH_TYPE":"primary","SCH_CODE":"SC019","SCH_RANK":null,"POSTCODE":"159016"},"geometry":{"type":"Point","coordinates":[103.82394079352414,1.291299034888273]}},{"type":"Feature","properties":{"SCH_NAME":"BLANGAH RISE PRIMARY SCHOOL","ADDRESS":"91 TELOK BLANGAH HEIGHTS","SCH_TYPE":"primary","SCH_CODE":"SC029","SCH_RANK":null,"POSTCODE":"109100"},"geometry":{"type":"Point","coordinates":[103.80863921158054,1.2761303042497267]}},{"type":"Feature","properties":{"SCH_NAME":"GAN ENG SENG PRIMARY SCHOOL","ADDRESS":"100 REDHILL CLOSE","SCH_TYPE":"primary","SCH_CODE":"SC068","SCH_RANK":null,"POSTCODE":"158901"},"geometry":{"type":"Point","coordinates":[103.81522820757228,1.2859553931718515]}},{"type":"Feature","properties":{"SCH_NAME":"RADIN MAS PRIMARY SCHOOL","ADDRESS":"1 BUKIT PURMEI AVENUE","SCH_TYPE":"primary","SCH_CODE":"SC128","SCH_RANK":"1","POSTCODE":"099840"},"geometry":{"type":"Point","coordinates":[103.82418827046628,1.2749582362284237]}},{"type":"Feature","properties":{"SCH_NAME":"ZHANGDE PRIMARY SCHOOL","ADDRESS":"51 Jalan Membina","SCH_TYPE":"primary","SCH_CODE":"SC177","SCH_RANK":null,"POSTCODE":"169485"},"geometry":{"type":"Point","coordinates":[103.8261489775843,1.284498220028072]}}],"csr":{"type":"name","properties":{"name":"urn:ogc:def:crs:EPSG::3414"}}},"requirement_result":true}],"HDB_JSON":{"type":"Polygon","coordinates":[[[103.8171478,1.2786424],[103.817827,1.2788706],[103.8178737,1.2787319],[103.8171944,1.2785037],[103.8171478,1.2786424]]],"properties":{"POSTCODE":90003,"PlanningArea":"BUKIT MERAH","DwellingUnits":264,"length":8}},"totalRequirement":true},{"ORREquirement":[{"requirement_description":{"operator":"≥","operator_amt":"3","parentLayer":"Education","subLayer":"primary","sublayer_column":"SCH_TYPE","within_range":"2000"},"requirement_points":{"type":"FeatureCollection","features":[{"type":"Feature","properties":{"SCH_NAME":"CANTONMENT PRIMARY SCHOOL","ADDRESS":"1 Cantonment Close","SCH_TYPE":"primary","SCH_CODE":"SC036","SCH_RANK":null,"POSTCODE":"A88256"},"geometry":{"type":"Point","coordinates":[103.83997978330996,1.2755963674817241]}},{"type":"Feature","properties":{"SCH_NAME":"RADIN MAS PRIMARY SCHOOL","ADDRESS":"1 BUKIT PURMEI AVENUE","SCH_TYPE":"primary","SCH_CODE":"SC128","SCH_RANK":"1","POSTCODE":"099840"},"geometry":{"type":"Point","coordinates":[103.82418827046628,1.2749582362284237]}},{"type":"Feature","properties":{"SCH_NAME":"RIVER VALLEY PRIMARY SCHOOL","ADDRESS":"2 RIVER VALLEY GREEN","SCH_TYPE":"primary","SCH_CODE":"SC130","SCH_RANK":null,"POSTCODE":"237993"},"geometry":{"type":"Point","coordinates":[103.83629374443399,1.2938177356758602]}},{"type":"Feature","properties":{"SCH_NAME":"ZHANGDE PRIMARY SCHOOL","ADDRESS":"51 Jalan Membina","SCH_TYPE":"primary","SCH_CODE":"SC177","SCH_RANK":null,"POSTCODE":"169485"},"geometry":{"type":"Point","coordinates":[103.8261489775843,1.284498220028072]}}],"csr":{"type":"name","properties":{"name":"urn:ogc:def:crs:EPSG::3414"}}},"requirement_result":true}],"HDB_JSON":{"type":"Polygon","coordinates":[[[103.8409932,1.2764979],[103.8411619,1.2768146],[103.841332,1.276724],[103.8411632,1.2764073],[103.8411437,1.2764178],[103.8410428,1.2764715],[103.8409932,1.2764979]]],"properties":{"POSTCODE":85501,"PlanningArea":"OUTRAM","DwellingUnits":264,"length":8}},"totalRequirement":true},{"ORREquirement":[{"requirement_description":{"operator":"≥","operator_amt":"3","parentLayer":"Education","subLayer":"primary","sublayer_column":"SCH_TYPE","within_range":"2000"},"requirement_points":{"type":"FeatureCollection","features":[{"type":"Feature","properties":{"SCH_NAME":"CANTONMENT PRIMARY SCHOOL","ADDRESS":"1 Cantonment Close","SCH_TYPE":"primary","SCH_CODE":"SC036","SCH_RANK":null,"POSTCODE":"A88256"},"geometry":{"type":"Point","coordinates":[103.83997978330996,1.2755963674817241]}},{"type":"Feature","properties":{"SCH_NAME":"RADIN MAS PRIMARY SCHOOL","ADDRESS":"1 BUKIT PURMEI AVENUE","SCH_TYPE":"primary","SCH_CODE":"SC128","SCH_RANK":"1","POSTCODE":"099840"},"geometry":{"type":"Point","coordinates":[103.82418827046628,1.2749582362284237]}},{"type":"Feature","properties":{"SCH_NAME":"ZHANGDE PRIMARY SCHOOL","ADDRESS":"51 Jalan Membina","SCH_TYPE":"primary","SCH_CODE":"SC177","SCH_RANK":null,"POSTCODE":"169485"},"geometry":{"type":"Point","coordinates":[103.8261489775843,1.284498220028072]}}],"csr":{"type":"name","properties":{"name":"urn:ogc:def:crs:EPSG::3414"}}},"requirement_result":true}],"HDB_JSON":{"type":"Polygon","coordinates":[[[103.8410652,1.2761215],[103.8410892,1.2761285],[103.8411937,1.2761589],[103.8412545,1.2761766],[103.8413552,1.2758311],[103.8411659,1.2757759],[103.8410652,1.2761215]]],"properties":{"POSTCODE":85601,"PlanningArea":"OUTRAM","DwellingUnits":264,"length":8}},"totalRequirement":true},{"ORREquirement":[{"requirement_description":{"operator":"≥","operator_amt":"3","parentLayer":"Education","subLayer":"primary","sublayer_column":"SCH_TYPE","within_range":"2000"},"requirement_points":{"type":"FeatureCollection","features":[{"type":"Feature","properties":{"SCH_NAME":"CANTONMENT PRIMARY SCHOOL","ADDRESS":"1 Cantonment Close","SCH_TYPE":"primary","SCH_CODE":"SC036","SCH_RANK":null,"POSTCODE":"A88256"},"geometry":{"type":"Point","coordinates":[103.83997978330996,1.2755963674817241]}},{"type":"Feature","properties":{"SCH_NAME":"RADIN MAS PRIMARY SCHOOL","ADDRESS":"1 BUKIT PURMEI AVENUE","SCH_TYPE":"primary","SCH_CODE":"SC128","SCH_RANK":"1","POSTCODE":"099840"},"geometry":{"type":"Point","coordinates":[103.82418827046628,1.2749582362284237]}},{"type":"Feature","properties":{"SCH_NAME":"RIVER VALLEY PRIMARY SCHOOL","ADDRESS":"2 RIVER VALLEY GREEN","SCH_TYPE":"primary","SCH_CODE":"SC130","SCH_RANK":null,"POSTCODE":"237993"},"geometry":{"type":"Point","coordinates":[103.83629374443399,1.2938177356758602]}},{"type":"Feature","properties":{"SCH_NAME":"ZHANGDE PRIMARY SCHOOL","ADDRESS":"51 Jalan Membina","SCH_TYPE":"primary","SCH_CODE":"SC177","SCH_RANK":null,"POSTCODE":"169485"},"geometry":{"type":"Point","coordinates":[103.8261489775843,1.284498220028072]}}],"csr":{"type":"name","properties":{"name":"urn:ogc:def:crs:EPSG::3414"}}},"requirement_result":true}],"HDB_JSON":{"type":"Polygon","coordinates":[[[103.8412904,1.2769266],[103.8416146,1.2770857],[103.8416994,1.276913],[103.8413752,1.2767539],[103.8412904,1.2769266]]],"properties":{"POSTCODE":85401,"PlanningArea":"OUTRAM","DwellingUnits":264,"length":8}},"totalRequirement":true},{"ORREquirement":[{"requirement_description":{"operator":"≥","operator_amt":"3","parentLayer":"Education","subLayer":"primary","sublayer_column":"SCH_TYPE","within_range":"2000"},"requirement_points":{"type":"FeatureCollection","features":[{"type":"Feature","properties":{"SCH_NAME":"ALEXANDRA PRIMARY SCHOOL","ADDRESS":"2A Prince Charles Crescent","SCH_TYPE":"primary","SCH_CODE":"SC019","SCH_RANK":null,"POSTCODE":"159016"},"geometry":{"type":"Point","coordinates":[103.82394079352414,1.291299034888273]}},{"type":"Feature","properties":{"SCH_NAME":"BLANGAH RISE PRIMARY SCHOOL","ADDRESS":"91 TELOK BLANGAH HEIGHTS","SCH_TYPE":"primary","SCH_CODE":"SC029","SCH_RANK":null,"POSTCODE":"109100"},"geometry":{"type":"Point","coordinates":[103.80863921158054,1.2761303042497267]}},{"type":"Feature","properties":{"SCH_NAME":"GAN ENG SENG PRIMARY SCHOOL","ADDRESS":"100 REDHILL CLOSE","SCH_TYPE":"primary","SCH_CODE":"SC068","SCH_RANK":null,"POSTCODE":"158901"},"geometry":{"type":"Point","coordinates":[103.81522820757228,1.2859553931718515]}},{"type":"Feature","properties":{"SCH_NAME":"RADIN MAS PRIMARY SCHOOL","ADDRESS":"1 BUKIT PURMEI AVENUE","SCH_TYPE":"primary","SCH_CODE":"SC128","SCH_RANK":"1","POSTCODE":"099840"},"geometry":{"type":"Point","coordinates":[103.82418827046628,1.2749582362284237]}},{"type":"Feature","properties":{"SCH_NAME":"ZHANGDE PRIMARY SCHOOL","ADDRESS":"51 Jalan Membina","SCH_TYPE":"primary","SCH_CODE":"SC177","SCH_RANK":null,"POSTCODE":"169485"},"geometry":{"type":"Point","coordinates":[103.8261489775843,1.284498220028072]}}],"csr":{"type":"name","properties":{"name":"urn:ogc:def:crs:EPSG::3414"}}},"requirement_result":true}],"HDB_JSON":{"type":"Polygon","coordinates":[[[103.8175961,1.2793768],[103.8181899,1.2795794],[103.8182374,1.2794404],[103.8176436,1.2792378],[103.8175961,1.2793768]]],"properties":{"POSTCODE":90001,"PlanningArea":"BUKIT MERAH","DwellingUnits":148,"length":8}},"totalRequirement":true},{"ORREquirement":[{"requirement_description":{"operator":"≥","operator_amt":"3","parentLayer":"Education","subLayer":"primary","sublayer_column":"SCH_TYPE","within_range":"2000"},"requirement_points":{"type":"FeatureCollection","features":[{"type":"Feature","properties":{"SCH_NAME":"CANTONMENT PRIMARY SCHOOL","ADDRESS":"1 Cantonment Close","SCH_TYPE":"primary","SCH_CODE":"SC036","SCH_RANK":null,"POSTCODE":"A88256"},"geometry":{"type":"Point","coordinates":[103.83997978330996,1.2755963674817241]}},{"type":"Feature","properties":{"SCH_NAME":"RADIN MAS PRIMARY SCHOOL","ADDRESS":"1 BUKIT PURMEI AVENUE","SCH_TYPE":"primary","SCH_CODE":"SC128","SCH_RANK":"1","POSTCODE":"099840"},"geometry":{"type":"Point","coordinates":[103.82418827046628,1.2749582362284237]}},{"type":"Feature","properties":{"SCH_NAME":"ZHANGDE PRIMARY SCHOOL","ADDRESS":"51 Jalan Membina","SCH_TYPE":"primary","SCH_CODE":"SC177","SCH_RANK":null,"POSTCODE":"169485"},"geometry":{"type":"Point","coordinates":[103.8261489775843,1.284498220028072]}}],"csr":{"type":"name","properties":{"name":"urn:ogc:def:crs:EPSG::3414"}}},"requirement_result":true}],"HDB_JSON":{"type":"Polygon","coordinates":[[[103.8411804,1.2757103],[103.8413774,1.2757449],[103.8414345,1.2754199],[103.8412375,1.2753853],[103.8411804,1.2757103]]],"properties":{"POSTCODE":85701,"PlanningArea":"OUTRAM","DwellingUnits":264,"length":8}},"totalRequirement":true},{"ORREquirement":[{"requirement_description":{"operator":"≥","operator_amt":"3","parentLayer":"Education","subLayer":"primary","sublayer_column":"SCH_TYPE","within_range":"2000"},"requirement_points":{"type":"FeatureCollection","features":[{"type":"Feature","properties":{"SCH_NAME":"ALEXANDRA PRIMARY SCHOOL","ADDRESS":"2A Prince Charles Crescent","SCH_TYPE":"primary","SCH_CODE":"SC019","SCH_RANK":null,"POSTCODE":"159016"},"geometry":{"type":"Point","coordinates":[103.82394079352414,1.291299034888273]}},{"type":"Feature","properties":{"SCH_NAME":"BLANGAH RISE PRIMARY SCHOOL","ADDRESS":"91 TELOK BLANGAH HEIGHTS","SCH_TYPE":"primary","SCH_CODE":"SC029","SCH_RANK":null,"POSTCODE":"109100"},"geometry":{"type":"Point","coordinates":[103.80863921158054,1.2761303042497267]}},{"type":"Feature","properties":{"SCH_NAME":"GAN ENG SENG PRIMARY SCHOOL","ADDRESS":"100 REDHILL CLOSE","SCH_TYPE":"primary","SCH_CODE":"SC068","SCH_RANK":null,"POSTCODE":"158901"},"geometry":{"type":"Point","coordinates":[103.81522820757228,1.2859553931718515]}},{"type":"Feature","properties":{"SCH_NAME":"RADIN MAS PRIMARY SCHOOL","ADDRESS":"1 BUKIT PURMEI AVENUE","SCH_TYPE":"primary","SCH_CODE":"SC128","SCH_RANK":"1","POSTCODE":"099840"},"geometry":{"type":"Point","coordinates":[103.82418827046628,1.2749582362284237]}},{"type":"Feature","properties":{"SCH_NAME":"ZHANGDE PRIMARY SCHOOL","ADDRESS":"51 Jalan Membina","SCH_TYPE":"primary","SCH_CODE":"SC177","SCH_RANK":null,"POSTCODE":"169485"},"geometry":{"type":"Point","coordinates":[103.8261489775843,1.284498220028072]}}],"csr":{"type":"name","properties":{"name":"urn:ogc:def:crs:EPSG::3414"}}},"requirement_result":true}],"HDB_JSON":{"type":"Polygon","coordinates":[[[103.8180947,1.2786548],[103.8187753,1.2789139],[103.8188245,1.2787846],[103.8181439,1.2785255],[103.8180947,1.2786548]]],"properties":{"POSTCODE":90004,"PlanningArea":"BUKIT MERAH","DwellingUnits":264,"length":8}},"totalRequirement":true}]